STORE_ID,CUSTOMER_ID,STORE_NAME,STORE_ADDRESS,STORE_ZIPCODE,STORE_STATE,STORE_STATE_DESC,STORE_CITY,STORE_COUNTRY,STORE_PHONE,STORE_EMAIL,STORE_WEBSITE,STORE_USER_RATING,STORE_WIFI,STORE_DRIVE_THRU,STORE_SERVICE_CENTER,STORE_SPECIALITY,STORE_SUPER,STORE_LATITUDE,STORE_LONGITUDE
1,1,Old East Cold,11422 Lackland Rd,63146,MO,Missouri,Saint Louis,USA,1.888.537.8135,info@microstrategy.com,www.microstrategy.com,3,0,0,1,0,0,38.6970013,-90.4163171
2,2,West General Summer,550 N 7th Ave,18503,PA,Pennsylvania,Scranton,USA,1.888.537.8135,info@microstrategy.com,www.microstrategy.com,3,1,1,1,0,1,41.4144062,-75.670398
3,3,Modern Old Fall,La Tour,1330,Ain,Ain,Amberieux En Dombes,France,1.888.537.8135,info@microstrategy.com,www.microstrategy.com,1,0,1,0,0,0,45.9974646,4.9032127
4,4,Design Group Spring,1 Rue Francois Rochaix,1100,Ain,Ain,Arbent,France,1.888.537.8135,info@microstrategy.com,www.microstrategy.com,4,0,1,0,0,1,46.2750666,5.6592856
5,5,Inc Best North,Avenue Victor Hugo,1100,Ain,Ain,Bellignat,France,1.888.537.8135,info@microstrategy.com,www.microstrategy.com,4,1,0,1,0,0,46.2502632,5.6363516
6,6,Associates First No.1,Allee Des Grandes Combes,1700,Ain,Ain,Beynost,France,1.888.537.8135,info@microstrategy.com,www.microstrategy.com,5,0,0,1,1,1,45.8235762,4.9914877
7,7,Urban Fall Modern,Le Village,1330,Ain,Ain,Bouligneux,France,1.888.537.8135,info@microstrategy.com,www.microstrategy.com,2,0,0,0,0,0,46.0037617,5.031057
8,8,Inc Store Cents,1 Rue Paul Pioda,1000,Ain,Ain,Bourg En Bresse,France,1.888.537.8135,info@microstrategy.com,www.microstrategy.com,5,1,1,0,0,0,46.2066536,5.2258967
9,9,Main Main Dollar,1 Rue De La Croix Chalon,1460,Ain,Ain,Brion,France,1.888.537.8135,info@microstrategy.com,www.microstrategy.com,5,0,1,1,0,0,46.7866725,4.8557225
10,10,Cents West Group,550 Rue Jean Mermoz,1500,Ain,Ain,Chateau Gaillard,France,1.888.537.8135,info@microstrategy.com,www.microstrategy.com,5,1,1,1,0,0,45.976772,5.3192473
11,11,No.1 The Main,1 Route De Contrevoz,1300,Ain,Ain,Chazey Bons,France,1.888.537.8135,info@microstrategy.com,www.microstrategy.com,4,1,0,0,1,0,45.8031017,5.6809598
12,12,Enterprise South Cents,167 Avenue De Geneve,1220,Ain,Ain,Divonne Les Bains,France,1.888.537.8135,info@microstrategy.com,www.microstrategy.com,3,1,0,1,1,0,46.3540953,6.1396074
13,13,Inc Modern Cold,Golf De Maison Blanche,1170,Ain,Ain,Echenevex,France,1.888.537.8135,info@microstrategy.com,www.microstrategy.com,4,1,0,1,1,0,46.3091498,6.0395769
14,14,Inc Lead The,1 Chemin De La Brunette,1210,Ain,Ain,Ferney Voltaire,France,1.888.537.8135,info@microstrategy.com,www.microstrategy.com,1,0,0,1,0,0,46.2525866,6.1171512
15,15,General Best Urban,Autoroute A 40,1250,Ain,Ain,Jasseron,France,1.888.537.8135,info@microstrategy.com,www.microstrategy.com,3,1,0,1,0,0,46.2103087,5.2948482
16,16,.com Spring Cents,462 Route De Balan,1120,Ain,Ain,La Boisse,France,1.888.537.8135,info@microstrategy.com,www.microstrategy.com,4,1,0,1,0,0,45.8373466,5.0568998
17,17,General Associates Spring,Za Lavy,1570,Ain,Ain,Manziat,France,1.888.537.8135,info@microstrategy.com,www.microstrategy.com,3,0,0,1,0,0,46.3590961,4.9069943
18,18,Spring East Modern,46 Rue De Lyon,1800,Ain,Ain,Meximieux,France,1.888.537.8135,info@microstrategy.com,www.microstrategy.com,1,0,0,0,1,0,45.9015848,5.1896473
19,19,General Import Hot,Domaine De Beau Logis,1390,Ain,Ain,Mionnay,France,1.888.537.8135,info@microstrategy.com,www.microstrategy.com,5,0,0,0,0,0,45.8962884,4.9310673
20,20,Summer East Cents,Les Metrillots,1250,Ain,Ain,Montagnat,France,1.888.537.8135,info@microstrategy.com,www.microstrategy.com,5,1,0,1,0,1,46.1649578,5.2687568
21,21,North Lead Goods,L Etoile,1310,Ain,Ain,Montracol,France,1.888.537.8135,info@microstrategy.com,www.microstrategy.com,3,1,0,0,0,1,46.196927,5.1227744
22,22,Fall .com Modern,23 Route De La Cluse,1130,Ain,Ain,Nantua,France,1.888.537.8135,info@microstrategy.com,www.microstrategy.com,5,1,0,0,1,0,46.1636349,5.5896126
23,23,Lead Old Fall,1553 Rue De Geneve,1210,Ain,Ain,Ornex,France,1.888.537.8135,info@microstrategy.com,www.microstrategy.com,5,0,1,1,0,0,46.266718,6.1005427
24,24,Store Enterprise The,49 Rue Du Capitaine Montreal,1100,Ain,Ain,Oyonnax,France,1.888.537.8135,info@microstrategy.com,www.microstrategy.com,1,1,1,1,0,1,46.2606712,5.6441329
25,25,Group Dollar Best,1593 Avenue De Lyon,1960,Ain,Ain,Peronnas,France,1.888.537.8135,info@microstrategy.com,www.microstrategy.com,1,1,1,1,0,0,46.1784774,5.2024164
26,26,Store Import Design,Route De La Cite,1800,Ain,Ain,Perouges,France,1.888.537.8135,info@microstrategy.com,www.microstrategy.com,5,1,0,1,1,0,45.9040738,5.1770376
27,27,Goods Winter Associates,27 Route Du Nant,1280,Ain,Ain,Prevessin Moens,France,1.888.537.8135,info@microstrategy.com,www.microstrategy.com,3,1,0,0,0,0,46.2473295,6.0843124
28,28,Store Spring Best,Les Brotteaux,1300,Ain,Ain,St Benoit,France,1.888.537.8135,info@microstrategy.com,www.microstrategy.com,2,0,1,0,1,0,45.6942157,5.5874986
29,29,Cents Store Old,1 Place De La Fontaine,1630,Ain,Ain,St Genis Pouilly,France,1.888.537.8135,info@microstrategy.com,www.microstrategy.com,3,0,1,0,0,1,46.2430604,6.0211549
30,30,Associates Design USA,194 Qu J Baptiste Bouchacourt,1750,Ain,Ain,St Laurent Sur Saone,France,1.888.537.8135,info@microstrategy.com,www.microstrategy.com,1,0,0,1,1,0,46.3060158,4.8418153
31,31,No.1 Store .com,Route Du Port,1140,Ain,Ain,Thoissey,France,1.888.537.8135,info@microstrategy.com,www.microstrategy.com,4,1,0,1,0,0,46.1694844,4.7970249
32,32,Winter South South,Chemin Des Bordes,1250,Ain,Ain,Tossiat,France,1.888.537.8135,info@microstrategy.com,www.microstrategy.com,4,1,0,0,1,0,46.1180767,5.2917462
33,33,Group Old Import,893 Route De Paris,1440,Ain,Ain,Viriat,France,1.888.537.8135,info@microstrategy.com,www.microstrategy.com,1,1,1,0,1,0,46.2221501,5.2088655
34,34,Modern Old Export,22 Place Du General Leclerc,2300,Aisne,Aisne,Blerancourt,France,1.888.537.8135,info@microstrategy.com,www.microstrategy.com,5,0,0,1,1,1,49.5171152,3.1531491
35,35,North General Rural,Rue Paulin Pecqueux,2110,Aisne,Aisne,Bohain En Vermandois,France,1.888.537.8135,info@microstrategy.com,www.microstrategy.com,1,1,1,1,0,1,49.9901665,3.4450515
36,36,The Hot Winter,Val Secret,2400,Aisne,Aisne,Brasles,France,1.888.537.8135,info@microstrategy.com,www.microstrategy.com,4,0,0,0,0,0,49.0721595,3.3994857
37,37,Best USA Cold,La Clef Du Sac,7210,Ardeche,Ardeche,Alissas,France,1.888.537.8135,info@microstrategy.com,www.microstrategy.com,3,1,0,0,0,0,44.7122388,4.6294503
38,38,Urban West USA,10 Place Des Cordeliers,7100,Ardeche,Ardeche,Annonay,France,1.888.537.8135,info@microstrategy.com,www.microstrategy.com,5,0,0,0,1,1,45.2406395,4.6721501
39,39,Enterprise Lead Export,Ld Les Chaussades,7200,Ardeche,Ardeche,Aubenas,France,1.888.537.8135,info@microstrategy.com,www.microstrategy.com,3,1,0,1,1,0,44.6162836,4.3984327
40,40,Lead Best The,Chemin Du Pont,7210,Ardeche,Ardeche,Chomerac,France,1.888.537.8135,info@microstrategy.com,www.microstrategy.com,5,1,0,1,0,1,44.7108939,4.6641903
41,41,Rural Design Main,1075 Route De Lyon,7430,Ardeche,Ardeche,Davezieux,France,1.888.537.8135,info@microstrategy.com,www.microstrategy.com,5,0,1,0,0,0,45.256422,4.6959237
42,42,East Main New,142 Rue Des Noniers,7500,Ardeche,Ardeche,Guilherand Granges,France,1.888.537.8135,info@microstrategy.com,www.microstrategy.com,2,1,1,1,0,0,44.9371162,4.8790869
43,43,New Design Urban,Place Leopold Ollier,7140,Ardeche,Ardeche,Les Vans,France,1.888.537.8135,info@microstrategy.com,www.microstrategy.com,5,1,0,1,0,0,44.4052353,4.1302392
44,44,Urban The Goods,Les Terres De Millet,7200,Ardeche,Ardeche,St Didier Sous Aubenas,France,1.888.537.8135,info@microstrategy.com,www.microstrategy.com,5,0,1,1,0,0,44.6128486,4.4139602
45,45,East Fall West,Marthouret,7690,Ardeche,Ardeche,St Julien Vocance,France,1.888.537.8135,info@microstrategy.com,www.microstrategy.com,2,0,0,1,0,0,45.174909,4.5038681
46,46,Store Goods General,Praperier,7290,Ardeche,Ardeche,St Romain D Ay,France,1.888.537.8135,info@microstrategy.com,www.microstrategy.com,5,0,0,1,1,1,45.1676612,4.6662313
47,47,Import Export Spring,43 Rte,8140,Ardennes,Ardennes,Bazeilles,France,1.888.537.8135,info@microstrategy.com,www.microstrategy.com,5,1,0,1,0,0,49.6798375,4.9931334
48,48,Design West Cold,1 Avenue Jean Jaures,8000,Ardennes,Ardennes,Charleville Mezieres,France,1.888.537.8135,info@microstrategy.com,www.microstrategy.com,5,0,0,0,0,0,49.7707822,4.719491
49,49,No.1 Export North,Ham De Montimont,8350,Ardennes,Ardennes,Donchery,France,1.888.537.8135,info@microstrategy.com,www.microstrategy.com,2,1,0,0,0,0,49.7271494,4.8906889
50,50,North Urban General,14 Avenue Pasteur,8200,Ardennes,Ardennes,Sedan,France,1.888.537.8135,info@microstrategy.com,www.microstrategy.com,5,0,1,1,0,0,49.6985988,4.9283891
51,51,The The General,16 Rue Du Chemin Sale,8400,Ardennes,Ardennes,Vouziers,France,1.888.537.8135,info@microstrategy.com,www.microstrategy.com,3,1,0,0,0,1,49.3982893,4.6974564
52,52,Group Associates .com,27 Cours Gabriel Faure,9000,Ariege,Ariege,Foix,France,1.888.537.8135,info@microstrategy.com,www.microstrategy.com,5,1,1,0,1,0,42.9640998,1.6077003
53,53,Summer .com Import,14 B Avenue Aristide Berges,9190,Ariege,Ariege,Lorp Sentaraille,France,1.888.537.8135,info@microstrategy.com,www.microstrategy.com,5,0,1,0,0,0,43.0094634,1.1191725
54,54,The Best The,Place Jean Ibanes,9200,Ariege,Ariege,St Girons,France,1.888.537.8135,info@microstrategy.com,www.microstrategy.com,5,0,1,0,0,1,42.9832051,1.1459577
55,55,Lead Associates Summer,Route De Bagneux,10110,Aube,Aube,Balnot Sur Laignes,France,1.888.537.8135,info@microstrategy.com,www.microstrategy.com,2,1,0,0,1,0,48.0303706,4.3653385
56,56,Group Old General,12 Avenue Du General Leclerc,10110,Aube,Aube,Bar Sur Seine,France,1.888.537.8135,info@microstrategy.com,www.microstrategy.com,3,0,1,1,0,0,48.1157761,4.3811733
57,57,Associates South General,Domaine De Foolz,10110,Aube,Aube,Bourguignons,France,1.888.537.8135,info@microstrategy.com,www.microstrategy.com,4,0,0,1,1,0,48.1321841,4.360068
58,58,Urban Hot Fall,35 Avenue Marechal Leclerc,10450,Aube,Aube,Breviandes,France,1.888.537.8135,info@microstrategy.com,www.microstrategy.com,1,1,1,1,0,1,48.2797298,4.0545795
59,59,Import East Old,1 Rue Des Saules,10150,Aube,Aube,Creney Pres Troyes,France,1.888.537.8135,info@microstrategy.com,www.microstrategy.com,4,0,1,1,1,0,48.3325399,4.1268661
60,60,Cold Import Modern,3 Avenue Roger Salengro,10600,Aube,Aube,La Chapelle St Luc,France,1.888.537.8135,info@microstrategy.com,www.microstrategy.com,5,1,1,0,0,0,48.311122,4.0514174
61,61,Cold Old Summer,Hameau Le Menilot,10270,Aube,Aube,Montieramey,France,1.888.537.8135,info@microstrategy.com,www.microstrategy.com,4,0,0,0,0,0,48.2304746,4.3047387
62,62,Inc East South,22 Rue Des Ponts,10400,Aube,Aube,Nogent Sur Seine,France,1.888.537.8135,info@microstrategy.com,www.microstrategy.com,1,0,0,1,1,0,48.4939481,3.4991787
63,63,South Old No.1,5 Place Charles De Gaulle,10150,Aube,Aube,Pont Ste Marie,France,1.888.537.8135,info@microstrategy.com,www.microstrategy.com,3,0,1,1,0,0,48.3140844,4.0985826
64,64,New Store .com,14 Route De Saint Parres,10260,Aube,Aube,Rumilly Les Vaudes,France,1.888.537.8135,info@microstrategy.com,www.microstrategy.com,5,1,0,1,1,0,48.1472095,4.2163456
65,65,Store .com General,17 Place Francois 1er,16100,Charente,Charente,Cognac,France,1.888.537.8135,info@microstrategy.com,www.microstrategy.com,3,1,1,1,1,0,45.6935312,-0.3250585
66,66,Export No.1 Cold,45 Route De Paris,16160,Charente,Charente,Le Gond Pontouvre,France,1.888.537.8135,info@microstrategy.com,www.microstrategy.com,5,1,1,0,1,0,45.6629185,0.1681865
67,67,USA .com Associates,Chateau De Nieuil,16270,Charente,Charente,Nieuil,France,1.888.537.8135,info@microstrategy.com,www.microstrategy.com,3,0,0,0,1,0,45.8832025,0.5252796
68,68,North Goods Group,Lieu Dit Les Glamots,16440,Charente,Charente,Roullet St Estephe,France,1.888.537.8135,info@microstrategy.com,www.microstrategy.com,4,1,0,1,1,0,45.5801421,0.0444441
69,69,First Associates First,122 Rte,16270,Charente,Charente,Roumazieres Loubert,France,1.888.537.8135,info@microstrategy.com,www.microstrategy.com,1,1,0,0,0,1,45.8861366,0.5818311
70,NULL,East Fall No.1,6 Quai De La Pree,17590,Charente Maritime,Charente Maritime,Ars En Re,France,1.888.537.8135,info@microstrategy.com,www.microstrategy.com,4,1,0,1,0,0,46.2094423,-1.5116207
71,71,South General Best,1 Route De La Plage,17440,Charente Maritime,Charente Maritime,Aytre,France,1.888.537.8135,info@microstrategy.com,www.microstrategy.com,3,1,0,1,1,1,46.118939,-1.1231284
73,73,Lead Fall Import,18 Place Du Chateau,17500,Charente Maritime,Charente Maritime,Jonzac,France,1.888.537.8135,info@microstrategy.com,www.microstrategy.com,5,1,1,0,1,0,45.4455498,-0.4322421
72,72,Enterprise USA .com,23 Boulevard De La Liberation,17340,Charente Maritime,Charente Maritime,Chatelaillon Plage,France,1.888.537.8135,info@microstrategy.com,www.microstrategy.com,4,1,0,1,1,0,46.0736798,-1.0900139
74,74,New Design Export,15 Quai De Senac,17630,Charente Maritime,Charente Maritime,La Flotte,France,1.888.537.8135,info@microstrategy.com,www.microstrategy.com,1,1,1,0,1,0,46.1871791,-1.3237693
75,75,The General East,1 Avenue De Colmar,17000,Charente Maritime,Charente Maritime,La Rochelle,France,1.888.537.8135,info@microstrategy.com,www.microstrategy.com,5,1,0,1,0,0,46.1539057,-1.1489834
76,76,Dollar Best Urban,61 Avenue De La Chaumiere,17390,Charente Maritime,Charente Maritime,La Tremblade,France,1.888.537.8135,info@microstrategy.com,www.microstrategy.com,1,0,0,1,1,1,45.7971277,-1.1634517
77,77,Urban Best Urban,12 Rue Des Groseilliers,17140,Charente Maritime,Charente Maritime,Lagord,France,1.888.537.8135,info@microstrategy.com,www.microstrategy.com,2,0,1,0,0,0,46.1827367,-1.1649774
78,78,.com Store USA,89 Rte De Pompierre,17600,Charente Maritime,Charente Maritime,Le Chay,France,1.888.537.8135,info@microstrategy.com,www.microstrategy.com,5,1,1,1,1,0,45.6645289,-0.9120103
79,79,Urban South Summer,78 Avenue De L Ocean,17570,Charente Maritime,Charente Maritime,Les Mathes,France,1.888.537.8135,info@microstrategy.com,www.microstrategy.com,5,0,1,1,0,0,45.6820645,-1.1783365
80,80,Lead East East,Route De Nantes,17230,Charente Maritime,Charente Maritime,Marans,France,1.888.537.8135,info@microstrategy.com,www.microstrategy.com,2,1,0,1,1,0,46.3087263,-0.9921359
81,81,Associates Import USA,Route De Talmont,17132,Charente Maritime,Charente Maritime,Meschers Sur Gironde,France,1.888.537.8135,info@microstrategy.com,www.microstrategy.com,5,1,0,1,0,0,45.560479,-0.9494676
82,82,Group Export Cold,1 Place De La Republique,17800,Charente Maritime,Charente Maritime,Pons,France,1.888.537.8135,info@microstrategy.com,www.microstrategy.com,4,1,1,0,0,0,45.5789397,-0.5480713
83,83,USA Group Import,2 Impasse Du Renclos,17138,Charente Maritime,Charente Maritime,Puilboreau,France,1.888.537.8135,info@microstrategy.com,www.microstrategy.com,5,1,0,1,0,1,46.1901027,-1.1162827
84,84,General Associates Enterprise,1 Avenue Leon Gambetta,17300,Charente Maritime,Charente Maritime,Rochefort,France,1.888.537.8135,info@microstrategy.com,www.microstrategy.com,4,0,1,1,1,0,45.9408199,-0.9711869
85,85,Cents No.1 Group,140 Rue Gambetta,17200,Charente Maritime,Charente Maritime,Royan,France,1.888.537.8135,info@microstrategy.com,www.microstrategy.com,5,1,0,0,1,0,45.6210646,-1.0308106
86,86,Cents Associates Inc,107 Cours Du Marechal Leclerc,17100,Charente Maritime,Charente Maritime,Saintes,France,1.888.537.8135,info@microstrategy.com,www.microstrategy.com,5,0,0,1,0,0,45.7526113,-0.651686
87,87,North Old Winter,8 Allee Du Phare,17590,Charente Maritime,Charente Maritime,St Clement Des Baleines,France,1.888.537.8135,info@microstrategy.com,www.microstrategy.com,5,1,1,0,0,0,46.2435082,-1.5596473
88,88,Dollar North Lead,1 Rue Du Petit Rempart,67230,Bas Rhin,Bas Rhin,Benfeld,France,1.888.537.8135,info@microstrategy.com,www.microstrategy.com,2,1,0,1,1,0,48.3701584,7.5930973
89,89,Summer Import First,3 Rue De L Industrie,67660,Bas Rhin,Bas Rhin,Betschdorf,France,1.888.537.8135,info@microstrategy.com,www.microstrategy.com,5,1,1,1,0,0,48.8919899,7.9190665
90,90,West Main The,70 Route De Bischwiller,67800,Bas Rhin,Bas Rhin,Bischheim,France,1.888.537.8135,info@microstrategy.com,www.microstrategy.com,4,0,0,0,1,1,48.6155576,7.7530524
91,91,Main Hot Best,10 Route D Obernai,67870,Bas Rhin,Bas Rhin,Bischoffsheim,France,1.888.537.8135,info@microstrategy.com,www.microstrategy.com,1,1,0,0,0,0,48.4867456,7.4967857
92,92,North Enterprise Fall,10 Rue De Bilwisheim,67170,Bas Rhin,Bas Rhin,Brumath,France,1.888.537.8135,info@microstrategy.com,www.microstrategy.com,3,0,0,1,0,0,48.7300223,7.7111845
93,93,Modern Cold Lead,Lieu Dit Windhof,67260,Bas Rhin,Bas Rhin,Burbach,France,1.888.537.8135,info@microstrategy.com,www.microstrategy.com,2,0,0,1,1,0,48.9012768,7.1249269
94,94,Fall Old Old,Col Du Pfaffenschlick,67510,Bas Rhin,Bas Rhin,Climbach,France,1.888.537.8135,info@microstrategy.com,www.microstrategy.com,4,0,0,1,0,0,48.9923499,7.8452539
95,95,Import Urban East,8 Place Du Marche,67650,Bas Rhin,Bas Rhin,Dambach La Ville,France,1.888.537.8135,info@microstrategy.com,www.microstrategy.com,2,0,0,1,0,0,48.3235529,7.4249151
96,96,Cold Main Inc,Chemin De Scherwiller,67650,Bas Rhin,Bas Rhin,Dieffenthal,France,1.888.537.8135,info@microstrategy.com,www.microstrategy.com,5,0,0,0,0,0,48.3079662,7.4212352
97,97,Store Enterprise East,1 Route De Sarre Union,67430,Bas Rhin,Bas Rhin,Domfessel,France,1.888.537.8135,info@microstrategy.com,www.microstrategy.com,4,0,0,0,0,1,48.9974723,7.1285956
98,98,Import South Cents,154 Montee Du Tilleul,67330,Bas Rhin,Bas Rhin,Dossenheim Sur Zinsel,France,1.888.537.8135,info@microstrategy.com,www.microstrategy.com,1,1,0,1,1,0,48.8021567,7.4029102
99,99,Cold Summer Urban,230 Rue Du Moulin,67120,Bas Rhin,Bas Rhin,Duppigheim,France,1.888.537.8135,info@microstrategy.com,www.microstrategy.com,3,1,0,0,1,1,48.5345472,7.6004259
100,100,South Spring .com,23 Rue Du General Leclerc,67600,Bas Rhin,Bas Rhin,Ebersmunster,France,1.888.537.8135,info@microstrategy.com,www.microstrategy.com,3,1,0,0,0,0,48.3113735,7.5231545
101,101,Import Lead Inc,24 Rue Du General Leclerc,67201,Bas Rhin,Bas Rhin,Eckbolsheim,France,1.888.537.8135,info@microstrategy.com,www.microstrategy.com,4,1,1,0,1,0,48.5780197,7.6878734
102,102,USA First Cents,7 Rue Du Foyer,67550,Bas Rhin,Bas Rhin,Eckwersheim,France,1.888.537.8135,info@microstrategy.com,www.microstrategy.com,2,0,1,0,0,0,48.6823279,7.6924886
103,103,Summer Spring No.1,10 Rue Principale,67350,Bas Rhin,Bas Rhin,Engwiller,France,1.888.537.8135,info@microstrategy.com,www.microstrategy.com,4,1,1,1,0,0,48.8844458,7.6149514
104,104,West South General,18 Rue Des Allies,67680,Bas Rhin,Bas Rhin,Epfig,France,1.888.537.8135,info@microstrategy.com,www.microstrategy.com,3,0,0,1,0,1,48.3592226,7.4656718
105,105,Goods Rural General,15 Rue Principale,67290,Bas Rhin,Bas Rhin,Erckartswiller,France,1.888.537.8135,info@microstrategy.com,www.microstrategy.com,3,0,0,0,1,0,48.8757056,7.36482
106,106,North South Hot,34 Rue De La Gare,67120,Bas Rhin,Bas Rhin,Ernolsheim Bruche,France,1.888.537.8135,info@microstrategy.com,www.microstrategy.com,5,1,0,1,0,1,48.5565032,7.5666684
107,107,Group Enterprise Dollar,27 Rue Andre Malraux,67150,Bas Rhin,Bas Rhin,Erstein,France,1.888.537.8135,info@microstrategy.com,www.microstrategy.com,1,1,1,1,1,1,48.4155054,7.7030666
108,108,Lead Fall .com,12 Route Nationale,67760,Bas Rhin,Bas Rhin,Gambsheim,France,1.888.537.8135,info@microstrategy.com,www.microstrategy.com,5,1,0,1,1,0,48.688179,7.8707599
109,109,Spring Cold Winter,Bord Du Rhin,67150,Bas Rhin,Bas Rhin,Gerstheim,France,1.888.537.8135,info@microstrategy.com,www.microstrategy.com,5,1,0,1,0,0,48.3879659,7.7242787
110,110,Dollar The Spring,7 Rue Du Moulin,67110,Bas Rhin,Bas Rhin,Gundershoffen,France,1.888.537.8135,info@microstrategy.com,www.microstrategy.com,1,1,1,1,0,1,48.9034959,7.6598483
111,111,Lead Urban Dollar,1 Place Desire Brumbt,67500,Bas Rhin,Bas Rhin,Haguenau,France,1.888.537.8135,info@microstrategy.com,www.microstrategy.com,2,0,0,0,1,0,48.8143976,7.783326
112,112,USA Spring Group,5 Rue Principale,67117,Bas Rhin,Bas Rhin,Handschuheim,France,1.888.537.8135,info@microstrategy.com,www.microstrategy.com,4,0,0,0,0,1,48.638619,7.573848
113,113,Enterprise Inc Import,9 Rue De Buhl,67690,Bas Rhin,Bas Rhin,Hatten,France,1.888.537.8135,info@microstrategy.com,www.microstrategy.com,2,0,0,1,0,0,48.9021675,7.9817416
114,114,No.1 General Enterprise,Che Departemental 5,67230,Bas Rhin,Bas Rhin,Herbsheim,France,1.888.537.8135,info@microstrategy.com,www.microstrategy.com,4,1,1,1,1,0,48.3497975,7.6319685
115,115,New Modern Best,23 Rue Principale,67260,Bas Rhin,Bas Rhin,Hinsingen,France,1.888.537.8135,info@microstrategy.com,www.microstrategy.com,5,1,0,0,0,0,48.9518706,6.9890107
116,116,Hot USA Urban,38 Rue De La Republique,67800,Bas Rhin,Bas Rhin,Hoenheim,France,1.888.537.8135,info@microstrategy.com,www.microstrategy.com,2,1,0,0,0,1,48.6221053,7.7554829
117,117,Group .com Hot,30 Rue De La Republique,67720,Bas Rhin,Bas Rhin,Hoerdt,France,1.888.537.8135,info@microstrategy.com,www.microstrategy.com,1,1,0,1,0,0,48.6987082,7.7845444
118,118,Old USA No.1,5 Rue De La Gare,67250,Bas Rhin,Bas Rhin,Hunspach,France,1.888.537.8135,info@microstrategy.com,www.microstrategy.com,5,0,1,1,1,0,48.9308083,7.9408495
119,119,Best Lead Inc,1 Chemin Du Routoir,67400,Bas Rhin,Bas Rhin,Illkirch Graffenstaden,France,1.888.537.8135,info@microstrategy.com,www.microstrategy.com,5,0,0,0,1,0,48.5316572,7.7343179
120,120,Export No.1 Modern,1 R Du Sous Lt Maussire,67840,Bas Rhin,Bas Rhin,Kilstett,France,1.888.537.8135,info@microstrategy.com,www.microstrategy.com,4,1,0,0,0,1,48.6778368,7.8543854
121,121,Hot Winter Group,80 Rue De La Liberte,67600,Bas Rhin,Bas Rhin,Kintzheim,France,1.888.537.8135,info@microstrategy.com,www.microstrategy.com,1,0,0,0,0,0,48.2535868,7.3938721
122,122,The Modern Cold,51 Rue Du General De Gaulle,67520,Bas Rhin,Bas Rhin,Kirchheim,France,1.888.537.8135,info@microstrategy.com,www.microstrategy.com,1,1,0,0,0,1,48.6208228,7.4917097
123,123,Associates Dollar South,15 Rue Pasteur,93500,Seine Saint Denis,Seine Saint Denis,Pantin,France,1.888.537.8135,info@microstrategy.com,www.microstrategy.com,5,0,0,1,1,0,48.8999941,2.3928467
124,124,Fall Old West,1 Boulevard Charles De Gaulle,93380,Seine Saint Denis,Seine Saint Denis,Pierrefitte Sur Seine,France,1.888.537.8135,info@microstrategy.com,www.microstrategy.com,3,1,0,0,0,0,48.9677063,2.3621412
125,125,Enterprise New Cents,122 Boulevard Henri Barbusse,93230,Seine Saint Denis,Seine Saint Denis,Romainville,France,1.888.537.8135,info@microstrategy.com,www.microstrategy.com,4,1,0,0,1,1,48.8775497,2.4414017
126,126,Winter Dollar Winter,12 Rue Raspail,93110,Seine Saint Denis,Seine Saint Denis,Rosny Sous Bois,France,1.888.537.8135,info@microstrategy.com,www.microstrategy.com,5,1,0,1,0,0,48.8733302,2.4741696
127,127,No.1 Enterprise Cold,1 Place Du Cornillon,93200,Seine Saint Denis,Seine Saint Denis,St Denis,France,1.888.537.8135,info@microstrategy.com,www.microstrategy.com,3,1,0,0,1,0,48.9255956,2.3643514
128,128,Import .com Associates,142 Rue Des Rosiers,93400,Seine Saint Denis,Seine Saint Denis,St Ouen,France,1.888.537.8135,info@microstrategy.com,www.microstrategy.com,2,1,0,0,0,0,48.9020213,2.3427335
129,129,East Modern Cents,11 Rue Roll Tanguy,93290,Seine Saint Denis,Seine Saint Denis,Tremblay En France,France,1.888.537.8135,info@microstrategy.com,www.microstrategy.com,5,0,0,1,0,0,48.982984,2.5472983
130,130,Cents Summer Modern,1 Place Des Fetes,93410,Seine Saint Denis,Seine Saint Denis,Vaujours,France,1.888.537.8135,info@microstrategy.com,www.microstrategy.com,5,0,1,0,0,1,48.929911,2.569449
131,131,Goods North Dollar,61 B Grande Rue,93250,Seine Saint Denis,Seine Saint Denis,Villemomble,France,1.888.537.8135,info@microstrategy.com,www.microstrategy.com,3,1,0,0,0,1,48.8829876,2.5136198
132,132,Store Goods Enterprise,3 Avenue Georges Clemenceau,93420,Seine Saint Denis,Seine Saint Denis,Villepinte,France,1.888.537.8135,info@microstrategy.com,www.microstrategy.com,2,1,0,0,1,0,48.9601604,2.5567039
133,133,Winter Best Cold,2 Chaussee Marcade,80100,Somme,Somme,Abbeville,France,1.888.537.8135,info@microstrategy.com,www.microstrategy.com,3,1,1,1,1,1,50.1095002,1.8305465
134,134,Design Cold Urban,Route De Boves,80250,Somme,Somme,Ailly Sur Noye,France,1.888.537.8135,info@microstrategy.com,www.microstrategy.com,4,1,0,0,1,1,49.7639363,2.3651112
135,135,Lead The Cold,17 Rue De Birmingham,80300,Somme,Somme,Albert,France,1.888.537.8135,info@microstrategy.com,www.microstrategy.com,4,1,0,0,1,0,50.0035457,2.6495214
136,136,Modern Urban Summer,1144 Avenue De La Plage,80120,Somme,Somme,Fort Mahon Plage,France,1.888.537.8135,info@microstrategy.com,www.microstrategy.com,4,1,0,1,0,0,50.339202,1.5548149
137,137,Lead East Group,24 Quai Courbet,80550,Somme,Somme,Le Crotoy,France,1.888.537.8135,info@microstrategy.com,www.microstrategy.com,5,0,0,0,0,0,50.2150766,1.6290602
138,138,Dollar Old The,174 Avenue Henri Barbusse,80330,Somme,Somme,Longueau,France,1.888.537.8135,info@microstrategy.com,www.microstrategy.com,4,0,0,0,0,1,49.869211,2.3602692
139,139,East South General,Rue Du Petit Pende,80230,Somme,Somme,Pende,France,1.888.537.8135,info@microstrategy.com,www.microstrategy.com,2,0,0,1,1,0,50.1601126,1.5950607
140,140,Dollar Modern Dollar,2 Rue Lucien Geffroy,80710,Somme,Somme,Quevauvillers,France,1.888.537.8135,info@microstrategy.com,www.microstrategy.com,5,1,0,1,0,0,49.8249235,2.0826151
141,141,.com Winter New,18 Place De L Hotel De Ville,80700,Somme,Somme,Roye,France,1.888.537.8135,info@microstrategy.com,www.microstrategy.com,4,0,0,1,1,0,49.6981676,2.789324
142,142,South The South,15 Rue De La Ferte,80230,Somme,Somme,St Valery Sur Somme,France,1.888.537.8135,info@microstrategy.com,www.microstrategy.com,5,1,0,0,1,0,50.1848186,1.6430944
143,143,Inc North Rural,10 Avenue Charles De Gaulle,81000,Tarn,Tarn,Albi,France,1.888.537.8135,info@microstrategy.com,www.microstrategy.com,3,0,1,0,0,1,43.9329634,2.1548473
144,144,Group Group Export,Les Rives,81600,Tarn,Tarn,Brens,France,1.888.537.8135,info@microstrategy.com,www.microstrategy.com,4,1,1,0,1,0,43.8959534,1.8928095
145,145,Inc No.1 Dollar,Ld Le Bourg,81150,Tarn,Tarn,Castelnau De Levis,France,1.888.537.8135,info@microstrategy.com,www.microstrategy.com,4,1,0,1,0,0,43.8984821,2.0731637
146,146,General West Export,Place Des Arcades,81140,Tarn,Tarn,Castelnau De Montmiral,France,1.888.537.8135,info@microstrategy.com,www.microstrategy.com,4,1,1,0,0,0,43.9656686,1.8201753
147,147,Rural West No.1,1 Place Soult,81100,Tarn,Tarn,Castres,France,1.888.537.8135,info@microstrategy.com,www.microstrategy.com,3,1,1,1,1,0,43.6044509,2.2448946
148,148,Lead Main USA,73 Avenue De Provence,81300,Tarn,Tarn,Graulhet,France,1.888.537.8135,info@microstrategy.com,www.microstrategy.com,4,1,0,1,1,0,43.7630606,2.0014045
149,149,Store Best Design,Le Rouzadou,81120,Tarn,Tarn,Labastide Denat,France,1.888.537.8135,info@microstrategy.com,www.microstrategy.com,4,1,1,1,0,0,43.8626166,2.1887765
150,150,South Group Winter,14 Allees Jean Jaures,81500,Tarn,Tarn,Lavaur,France,1.888.537.8135,info@microstrategy.com,www.microstrategy.com,1,1,1,0,0,0,43.6988774,1.8149983
151,151,First The Enterprise,Chemin Des Taillades,81990,Tarn,Tarn,Le Sequestre,France,1.888.537.8135,info@microstrategy.com,www.microstrategy.com,5,1,0,1,1,0,43.9144857,2.1266686
152,152,Dollar USA New,7 Avenue Albert Rouviere,81200,Tarn,Tarn,Mazamet,France,1.888.537.8135,info@microstrategy.com,www.microstrategy.com,5,0,0,0,0,0,43.4943309,2.3745849
153,153,General Dollar West,Lieu Dit Fontbonne,81140,Tarn,Tarn,Penne,France,1.888.537.8135,info@microstrategy.com,www.microstrategy.com,1,0,0,0,1,0,44.0773006,1.7285231
154,154,Rural New .com,Au Bourg,81370,Tarn,Tarn,St Sulpice,France,1.888.537.8135,info@microstrategy.com,www.microstrategy.com,5,0,1,1,1,1,44.6436785,0.0293261
155,155,Enterprise Modern Fall,Avenue Du General De Gaulle,82350,Tarn Et Garonne,Tarn Et Garonne,Albias,France,1.888.537.8135,info@microstrategy.com,www.microstrategy.com,3,1,0,0,0,1,44.0909225,1.4478066
156,156,The Modern Fall,Zi De Trixe,82710,Tarn Et Garonne,Tarn Et Garonne,Bressols,France,1.888.537.8135,info@microstrategy.com,www.microstrategy.com,3,0,0,0,1,0,43.9445902,1.3245458
157,157,Import East Hot,6 Place Omer Sarraut,82100,Tarn Et Garonne,Tarn Et Garonne,Castelsarrasin,France,1.888.537.8135,info@microstrategy.com,www.microstrategy.com,3,1,0,0,0,0,44.0369669,1.1113925
158,158,Spring Rural Best,200 Route D Agen,82170,Tarn Et Garonne,Tarn Et Garonne,Grisolles,France,1.888.537.8135,info@microstrategy.com,www.microstrategy.com,3,1,0,1,0,0,43.8360997,1.294282
159,159,Store Main Associates,1 Place Des Recollets,82200,Tarn Et Garonne,Tarn Et Garonne,Moissac,France,1.888.537.8135,info@microstrategy.com,www.microstrategy.com,5,0,1,0,0,1,44.103551,1.0862054
160,160,Summer .com Spring,1 Allee De L Empereur,82000,Tarn Et Garonne,Tarn Et Garonne,Montauban,France,1.888.537.8135,info@microstrategy.com,www.microstrategy.com,4,0,0,0,0,0,44.0310432,1.3469247
161,161,Store North Cents,2386 Chemin Des Reys,82410,Tarn Et Garonne,Tarn Et Garonne,St Etienne De Tulmont,France,1.888.537.8135,info@microstrategy.com,www.microstrategy.com,4,0,1,1,0,0,44.0639631,1.4442749
162,162,Modern West Rural,23 Chemin De Roussillon,82370,Tarn Et Garonne,Tarn Et Garonne,St Nauphary,France,1.888.537.8135,info@microstrategy.com,www.microstrategy.com,5,0,0,0,0,0,43.9662029,1.4253964
163,163,Import Cents Dollar,2 Av Thomas Woodrow Wilson,90000,Territoire De Belfort,Territoire De Belfort,Belfort,France,1.888.537.8135,info@microstrategy.com,www.microstrategy.com,1,1,1,0,0,0,47.6437604,6.8437053
164,164,North USA Fall,Rue D Alsace,90100,Territoire De Belfort,Territoire De Belfort,Chavannes Les Grands,France,1.888.537.8135,info@microstrategy.com,www.microstrategy.com,5,0,0,0,0,0,47.5921561,7.0450604
165,165,Cold Best Associates,6 Rue De Charmois,90400,Territoire De Belfort,Territoire De Belfort,Meroux,France,1.888.537.8135,info@microstrategy.com,www.microstrategy.com,4,1,1,0,0,0,47.5957502,6.8971753
166,166,Old .com USA,13 Rue Principale,90150,Territoire De Belfort,Territoire De Belfort,Vauthiermont,France,1.888.537.8135,info@microstrategy.com,www.microstrategy.com,1,1,0,0,0,1,47.685694,7.0310437
167,167,Export Fall Enterprise,194 Rue Henri Barbusse,95100,Val D Oise,Val D Oise,Argenteuil,France,1.888.537.8135,info@microstrategy.com,www.microstrategy.com,2,1,0,0,0,0,48.932721,2.2318078
168,168,Main .com Fall,82 Rue Francois Villon,95430,Val D Oise,Val D Oise,Auvers Sur Oise,France,1.888.537.8135,info@microstrategy.com,www.microstrategy.com,4,1,0,0,0,1,49.0712595,2.1550555
169,169,New Cents Cold,19 B Avenue Du General Leclerc,95250,Val D Oise,Val D Oise,Beauchamp,France,1.888.537.8135,info@microstrategy.com,www.microstrategy.com,5,1,0,0,0,0,49.0095296,2.1993607
170,170,Group USA West,2 Avenue Carnot,95260,Val D Oise,Val D Oise,Beaumont Sur Oise,France,1.888.537.8135,info@microstrategy.com,www.microstrategy.com,3,1,0,0,0,0,49.1409217,2.2837112
171,171,Enterprise Spring New,5 Rue Emile Zola,95870,Val D Oise,Val D Oise,Bezons,France,1.888.537.8135,info@microstrategy.com,www.microstrategy.com,3,1,0,0,1,0,48.9226999,2.2153815
172,172,South New Best,2 Place Du Grand Hunier,95000,Val D Oise,Val D Oise,Cergy,France,1.888.537.8135,info@microstrategy.com,www.microstrategy.com,3,0,1,1,0,0,49.0319129,2.0604712
173,173,General Design Cold,Lieudit Les Moulins,95830,Val D Oise,Val D Oise,Cormeilles En Vexin,France,1.888.537.8135,info@microstrategy.com,www.microstrategy.com,4,0,0,0,1,0,49.1156462,2.0171791
174,174,Urban Dollar Export,159 Avenue Jean Rostand,95330,Val D Oise,Val D Oise,Domont,France,1.888.537.8135,info@microstrategy.com,www.microstrategy.com,1,1,1,1,0,0,49.0399023,2.3395621
175,175,Associates Summer Fall,1 Rue Des Erables,95610,Val D Oise,Val D Oise,Eragny Sur Oise,France,1.888.537.8135,info@microstrategy.com,www.microstrategy.com,5,0,1,1,0,0,49.0272178,2.1019928
176,176,South West Cents,71 Rue De Stalingrad,95120,Val D Oise,Val D Oise,Ermont,France,1.888.537.8135,info@microstrategy.com,www.microstrategy.com,2,0,1,0,0,0,48.9858458,2.2567911
177,177,Urban Cents Group,Route Nationale 17,95470,Val D Oise,Val D Oise,Fosses,France,1.888.537.8135,info@microstrategy.com,www.microstrategy.com,4,1,0,0,0,1,48.7596564,2.4852578
178,178,New Enterprise Spring,326 Rue Du General Leclerc,95130,Val D Oise,Val D Oise,Franconville La Garenne,France,1.888.537.8135,info@microstrategy.com,www.microstrategy.com,3,0,1,0,1,0,48.9885689,2.20764
179,179,West No.1 General,22 Rue Gay Lussac,95500,Val D Oise,Val D Oise,Gonesse,France,1.888.537.8135,info@microstrategy.com,www.microstrategy.com,5,1,0,1,1,0,48.9807593,2.4625868
180,180,Lead Fall West,5 Rue Le Corbusier,95190,Val D Oise,Val D Oise,Goussainville,France,1.888.537.8135,info@microstrategy.com,www.microstrategy.com,1,0,0,0,0,0,49.020087,2.4640032
181,181,Store Modern Design,Rue Du Champ Barbier,95410,Val D Oise,Val D Oise,Groslay,France,1.888.537.8135,info@microstrategy.com,www.microstrategy.com,4,1,0,1,0,0,48.9857452,2.3589747
182,182,Export East Rural,3 Rue D Argenteuil,95220,Val D Oise,Val D Oise,Herblay,France,1.888.537.8135,info@microstrategy.com,www.microstrategy.com,4,1,1,0,1,0,48.9906255,2.1676074
183,183,Import Lead Best,2 Place Du Patis,95290,Val D Oise,Val D Oise,L Isle Adam,France,1.888.537.8135,info@microstrategy.com,www.microstrategy.com,4,0,1,1,0,0,49.1118277,2.2123602
2265,2265,Rural Associates Import,2670 W Maple Rd,48084,MI,Michigan,Troy,USA,1.888.537.8135,info@microstrategy.com,www.microstrategy.com,4,0,1,1,0,0,42.5475773,-83.1814626
2266,2266,Main Cold Modern,105 E 29Th St,10016,NY,New York,New York,USA,1.888.537.8135,info@microstrategy.com,www.microstrategy.com,4,1,0,0,1,1,40.743874,-73.9828689
2267,2267,Main .com USA,73 Green House Rd,29847,SC,South Carolina,Trenton,USA,1.888.537.8135,info@microstrategy.com,www.microstrategy.com,3,1,0,0,0,0,33.7190699,-81.8499821
2268,2268,Import Summer Best,142 Thomas St NW Ste 200,20001,DC,District of Columbia,Washington,USA,1.888.537.8135,info@microstrategy.com,www.microstrategy.com,3,1,1,1,1,0,38.9161,-77.013511
2269,2269,General Store Winter,5501 La Cross Rd,29406,SC,South Carolina,North Charleston,USA,1.888.537.8135,info@microstrategy.com,www.microstrategy.com,4,0,1,1,0,0,NULL,NULL
2270,2270,Lead Goods West,3528 19th St SE,20020,DC,District of Columbia,Washington,USA,1.888.537.8135,info@microstrategy.com,www.microstrategy.com,3,1,0,0,0,0,38.84399,-76.9760639
2271,2271,Hot North Design,1491 Monterey St,93401,CA,California,San Luis Obispo,USA,1.888.537.8135,info@microstrategy.com,www.microstrategy.com,1,0,0,1,0,1,35.285772,-120.654517
2272,2272,Design .com Urban,1155 21 St Nw,20036,DC,District of Columbia,Washington,USA,1.888.537.8135,info@microstrategy.com,www.microstrategy.com,4,0,0,1,0,1,38.904871,-77.046099
2273,2273,Export Lead Urban,702 Mangrove Ave,95926,CA,California,Chico,USA,1.888.537.8135,info@microstrategy.com,www.microstrategy.com,4,0,1,1,0,0,39.735982,-121.833892
2274,2274,Urban Export Main,1562 Watkins Rd,43207,OH,Ohio,Columbus,USA,1.888.537.8135,info@microstrategy.com,www.microstrategy.com,2,0,0,0,0,0,39.904869,-82.953453
2275,2275,General Store Old,111 Green Bay Rd,60091,IL,Illinois,Wilmette,USA,1.888.537.8135,info@microstrategy.com,www.microstrategy.com,3,0,0,1,0,0,42.0694845,-87.7034042
2276,2276,Rural Design Old,130 E Liberty St,48381,MI,Michigan,Milford,USA,1.888.537.8135,info@microstrategy.com,www.microstrategy.com,3,1,0,1,1,0,42.5894884,-83.5998984
2277,2277,North Group Enterprise,9230 NW 12th St,33172,FL,Florida,Doral,USA,1.888.537.8135,info@microstrategy.com,www.microstrategy.com,1,1,1,0,1,0,25.7831991,-80.3465937
2278,2278,Modern Spring Design,753 W Belknap St,76458,TX,Texas,Jacksboro,USA,1.888.537.8135,info@microstrategy.com,www.microstrategy.com,4,1,0,1,1,0,33.2182251,-98.1705463
2279,2279,Winter Rural Rural,273 Railroad Ave,11782,NY,New York,Sayville,USA,1.888.537.8135,info@microstrategy.com,www.microstrategy.com,2,0,1,1,0,0,40.7489651,-73.0903956
2280,2280,.com Main General,223 W Poplar St,19522,PA,Pennsylvania,Fleetwood,USA,1.888.537.8135,info@microstrategy.com,www.microstrategy.com,5,0,0,1,1,1,40.449127,-75.823201
2281,2281,Import Hot South,35 Fessenden St,48043,MI,Michigan,Mount Clemens,USA,1.888.537.8135,info@microstrategy.com,www.microstrategy.com,3,1,0,0,0,0,42.5941736,-82.86915
2282,2282,Spring .com Best, 28 Childwall Valley Rd Childwall,NULL,NULL,NULL, Liverpool,United Kingdom,1.888.537.8135,info@microstrategy.com,www.microstrategy.com,4,1,1,1,1,0,53.3975825,-2.8952962
2283,2283,Fall Export Design,209 Pennsylvania Ave SE,20003,DC,District of Columbia,Washington,USA,1.888.537.8135,info@microstrategy.com,www.microstrategy.com,1,1,0,0,0,0,38.887103,-77.003032
2284,2284,Export West Summer,2460 Remount Rd Ste 111,29406,SC,South Carolina,North Charleston,USA,1.888.537.8135,info@microstrategy.com,www.microstrategy.com,4,0,0,1,1,1,32.898834,-80.027677
2285,2285,Design Group Summer,276 Grand St,10002,NY,New York,New York,USA,1.888.537.8135,info@microstrategy.com,www.microstrategy.com,1,1,0,0,0,0,40.718022,-73.992673
2286,2286,Cold Cents Lead,8181 E Arapahoe Rd Ste C,80112,CO,Colorado,Greenwood Village,USA,1.888.537.8135,info@microstrategy.com,www.microstrategy.com,4,1,0,0,1,1,39.595739,-104.894045
2287,2287,Old Best Enterprise,1425 W Main St,49735,MI,Michigan,Gaylord,USA,1.888.537.8135,info@microstrategy.com,www.microstrategy.com,1,0,1,0,0,1,45.0274099,-84.6941213
2288,2288,Main Export Old, 274a Smithdown Road,NULL,NULL,NULL, Liverpool,United Kingdom,1.888.537.8135,info@microstrategy.com,www.microstrategy.com,5,0,0,0,0,0,53.3899332,-2.9249713
2289,2289,Urban No.1 Hot,2595 Charlestown Rd,47150,IN,Indiana,New Albany,USA,1.888.537.8135,info@microstrategy.com,www.microstrategy.com,3,0,0,0,1,0,38.3154923,-85.8048478
2290,2290,Import Group Inc,23439 Big Chief Rd,56537,MN,Minnesota,Fergus Falls,USA,1.888.537.8135,info@microstrategy.com,www.microstrategy.com,5,1,1,0,0,0,46.2054603,-96.0034202
2291,2291,USA Inc Enterprise,327 Seward St Ste 2,99835,AK,Alaska,Sitka,USA,1.888.537.8135,info@microstrategy.com,www.microstrategy.com,5,1,1,1,0,0,57.0508977,-135.3348
2292,2292,The Store Store,3223 S Loop 289 Ste 101,79423,TX,Texas,Lubbock,USA,1.888.537.8135,info@microstrategy.com,www.microstrategy.com,4,1,1,1,1,1,33.5289885,-101.8817487
2293,2293,Winter Urban West,5908 Seat Pleasant Dr,20743,MD,Maryland,Capitol Heights,USA,1.888.537.8135,info@microstrategy.com,www.microstrategy.com,5,0,0,1,0,0,38.89661,-76.905301
2294,2294,Hot General East, 27 Moss St Garston Liverpool,NULL,NULL,NULL, Liverpool,United Kingdom,1.888.537.8135,info@microstrategy.com,www.microstrategy.com,5,1,0,0,1,0,53.3556112,-2.8999317
2295,2295,Dollar Hot Import,1040 Barnum Ave,06614,CT,Connecticut,Stratford,USA,1.888.537.8135,info@microstrategy.com,www.microstrategy.com,2,0,1,0,0,0,41.1988787,-73.1326386
2296,2296,Urban Fall No.1,5413 N Capson Ln,83704,ID,Idaho,Boise,USA,1.888.537.8135,info@microstrategy.com,www.microstrategy.com,4,0,0,0,1,0,43.654063,-116.311563
2297,2297,General Cold Group,1302 W Mahalo Pl,90220,CA,California,Compton,USA,1.888.537.8135,info@microstrategy.com,www.microstrategy.com,5,1,1,1,0,0,33.870919,-118.245112
2298,2298,Store Fall The,Bldg 550 River St Ste A,95060,CA,California,Santa Cruz,USA,1.888.537.8135,info@microstrategy.com,www.microstrategy.com,4,0,0,0,1,0,36.982486,-122.0296314
2299,2299,Fall Summer Rural,1042 N 51st Ave,85043,AZ,Arizona,Phoenix,USA,1.888.537.8135,info@microstrategy.com,www.microstrategy.com,5,1,1,1,0,1,33.460177,-112.169319
2300,2300,.com USA Spring,1215 N Memorial Dr,43130,OH,Ohio,Lancaster,USA,1.888.537.8135,info@microstrategy.com,www.microstrategy.com,5,1,0,1,0,1,39.727689,-82.6104134
2301,2301,First USA .com,5445 Butler Rd,20816,MD,Maryland,Bethesda,USA,1.888.537.8135,info@microstrategy.com,www.microstrategy.com,4,0,0,1,1,0,38.962882,-77.102142
2302,2302,Export New USA,141 N Interchange,59722,MT,Montana,Deer Lodge,USA,1.888.537.8135,info@microstrategy.com,www.microstrategy.com,5,1,0,1,0,0,46.41159,-112.7273346
2303,2303,Best Inc Dollar,2800 12th St NE,20017,DC,District of Columbia,Washington,USA,1.888.537.8135,info@microstrategy.com,www.microstrategy.com,4,1,1,0,1,0,38.925855,-76.990825
2304,2304,Fall Main Export,1810 Westfield Rd,27030,NC,North Carolina,Mount Airy,USA,1.888.537.8135,info@microstrategy.com,www.microstrategy.com,4,1,1,1,0,0,36.485386,-80.58833
2305,2305,Rural Rural Cold,60 Dodge Ave Null,06473,CT,Connecticut,North Haven,USA,1.888.537.8135,info@microstrategy.com,www.microstrategy.com,4,1,1,0,1,0,NULL,NULL
2306,2306,Group Rural The,201 N Church St,39073,MS,Mississippi,Florence,USA,1.888.537.8135,info@microstrategy.com,www.microstrategy.com,3,1,1,1,1,1,32.1600866,-90.1351081
2307,2307,New Associates The,109 S Jefferson Ave,38501,TN,Tennessee,Cookeville,USA,1.888.537.8135,info@microstrategy.com,www.microstrategy.com,1,1,0,0,1,0,36.161146,-85.5006609
2308,2308,Import Modern East,501 Airport Dr Ste 100,87401,NM,New Mexico,Farmington,USA,1.888.537.8135,info@microstrategy.com,www.microstrategy.com,4,0,0,1,1,0,36.7340065,-108.2203531
2309,2309,South Import USA,1704 Pepperbush Ct,21114,MD,Maryland,Crofton,USA,1.888.537.8135,info@microstrategy.com,www.microstrategy.com,3,1,0,1,1,0,38.995485,-76.678651
2310,2310,Summer Spring The,4290 Farm to Market Rd,59901,MT,Montana,Kalispell,USA,1.888.537.8135,info@microstrategy.com,www.microstrategy.com,5,1,0,0,1,0,48.311001,-114.422066
2311,2311,Urban Cents Inc,12961 S Straits Hwy,49799,MI,Michigan,Wolverine,USA,1.888.537.8135,info@microstrategy.com,www.microstrategy.com,1,0,0,1,0,0,45.2737238,-84.6036295
2312,2312,Rural North Urban,50 W 23Rd St,10010,NY,New York,New York,USA,1.888.537.8135,info@microstrategy.com,www.microstrategy.com,3,1,1,0,0,0,40.7424468,-73.991779
2313,2313,Old Main Dollar,24 S Main St,03301,NH,New Hampshire,Concord,USA,1.888.537.8135,info@microstrategy.com,www.microstrategy.com,1,1,1,0,1,0,43.2030571,-71.5353613
2314,2314,Cents Best New,3003 Northwind Rd,21234,MD,Maryland,Parkville,USA,1.888.537.8135,info@microstrategy.com,www.microstrategy.com,3,1,1,1,1,0,39.4092112,-76.5135341
2315,2315,USA Main Hot,270 N Canon Dr,90210,CA,California,Beverly Hills,USA,1.888.537.8135,info@microstrategy.com,www.microstrategy.com,5,1,1,1,0,1,34.069258,-118.399041
2316,2316,Import Cents Cents,4049 US 64,28655,NC,North Carolina,Morganton,USA,1.888.537.8135,info@microstrategy.com,www.microstrategy.com,4,0,0,1,0,0,35.660836,-81.751186
2317,2317,Goods Export Export,350 Carl Eller Rd,28754,NC,North Carolina,Mars Hill,USA,1.888.537.8135,info@microstrategy.com,www.microstrategy.com,5,0,1,1,1,0,35.822738,-82.544644
2318,2318,Main Dollar No.1,2085 Locust St S,44614,OH,Ohio,Canal Fulton,USA,1.888.537.8135,info@microstrategy.com,www.microstrategy.com,3,1,0,0,0,0,40.8832275,-81.5789095
2319,2319,Urban General West,269 Branchview Dr SE,28025,NC,North Carolina,Concord,USA,1.888.537.8135,info@microstrategy.com,www.microstrategy.com,5,0,1,1,0,0,35.411086,-80.568161
2320,2320,General The The,8985 Woodyard Rd,20735,MD,Maryland,Clinton,USA,1.888.537.8135,info@microstrategy.com,www.microstrategy.com,2,1,1,0,1,0,38.7658645,-76.896076
2321,2321,Goods Store Hot,1108 W Saint Georges Ave,07036,NJ,New Jersey,Linden,USA,1.888.537.8135,info@microstrategy.com,www.microstrategy.com,4,0,0,0,0,0,40.6272,-74.2731
2322,2322,Associates Old Winter,5641 Post Rd,02818,RI,Rhode Island,East Greenwich,USA,1.888.537.8135,info@microstrategy.com,www.microstrategy.com,4,0,0,1,1,0,41.642119,-71.46744
2323,2323,Modern Goods Export,3451 Mount Carmel Rd,45244,OH,Ohio,Cincinnati,USA,1.888.537.8135,info@microstrategy.com,www.microstrategy.com,5,1,0,1,0,0,39.1194785,-84.308456
2324,2324,South Hot Inc,202 S Moore St,56013,MN,Minnesota,Blue Earth,USA,1.888.537.8135,info@microstrategy.com,www.microstrategy.com,5,1,1,0,1,0,43.63756,-94.1010211
2325,2325,Goods Hot Inc,1101 Dr Martin Luther King Jr Dr N,27910,NC,North Carolina,Ahoskie,USA,1.888.537.8135,info@microstrategy.com,www.microstrategy.com,3,1,1,1,0,0,NULL,NULL
2326,2326,The The The,11548 W 95th St,66214,KS,Kansas,Overland Park,USA,1.888.537.8135,info@microstrategy.com,www.microstrategy.com,4,1,1,0,0,1,38.9566451,-94.7148922
2327,2327,.com Goods Lead,6295 Yadkin Rd,28303,NC,North Carolina,Fayetteville,USA,1.888.537.8135,info@microstrategy.com,www.microstrategy.com,5,1,1,0,0,0,35.1010319,-78.991077
2328,2328,Import General Enterprise,3300 Bob Billings Pkwy,66049,KS,Kansas,Lawrence,USA,1.888.537.8135,info@microstrategy.com,www.microstrategy.com,5,0,0,1,1,0,38.95742,-95.277489
2329,2329,Lead USA South,1823 N Circle Dr,80909,CO,Colorado,Colorado Springs,USA,1.888.537.8135,info@microstrategy.com,www.microstrategy.com,5,0,1,0,0,0,38.8591821,-104.775711
2330,2330,USA Store .com,1249 Upper Front St Ste 203,13905,NY,New York,Binghamton,USA,1.888.537.8135,info@microstrategy.com,www.microstrategy.com,4,0,1,1,0,0,42.156228,-75.897051
2331,2331,General Rural Main, 1 Coleman St,NULL,NULL,NULL, London,United Kingdom,1.888.537.8135,info@microstrategy.com,www.microstrategy.com,3,0,0,0,1,0,51.5157853,-0.0898959
2332,2332,West General East,73 Holten St,01923,MA,Massachusetts,Danvers,USA,1.888.537.8135,info@microstrategy.com,www.microstrategy.com,4,0,0,0,1,1,42.5613,-70.9477
2333,2333,Urban No.1 The,1 Alton Farm Rd Nigg,NULL,NULL,NULL,Aberdeen,United Kingdom,1.888.537.8135,info@microstrategy.com,www.microstrategy.com,5,1,0,1,1,0,57.114632,-2.089274
2334,2334,West Rural Group,4225 Nolensville Pike,37211,TN,Tennessee,Nashville,USA,1.888.537.8135,info@microstrategy.com,www.microstrategy.com,3,1,0,1,1,0,36.075065,-86.72566
2335,2335,Cold The Group,5300 Old Cheney Rd,68516,NE,Nebraska,Lincoln,USA,1.888.537.8135,info@microstrategy.com,www.microstrategy.com,3,1,0,1,1,0,40.755806,-96.647605
2336,2336,Goods Export Group,1191 H St,92227,CA,California,Brawley,USA,1.888.537.8135,info@microstrategy.com,www.microstrategy.com,4,1,0,1,0,0,32.976738,-115.522276
2337,2337,Export Winter Enterprise,366 Ontario St,14207,NY,New York,Buffalo,USA,1.888.537.8135,info@microstrategy.com,www.microstrategy.com,1,1,1,1,0,1,42.954277,-78.899919
2338,2338,Main Spring Urban,4643 Lakeview Canyon Rd,91361,CA,California,Westlake Village,USA,1.888.537.8135,info@microstrategy.com,www.microstrategy.com,3,0,1,0,0,1,34.1477498,-118.8193387
2339,2339,Spring Design North,1336 Gilman St Null,94706,CA,California,Albany,USA,1.888.537.8135,info@microstrategy.com,www.microstrategy.com,1,0,0,1,0,0,NULL,NULL
2340,2340,West Urban Winter,600 Spring Brook Rd,12776,NY,New York,Roscoe,USA,1.888.537.8135,info@microstrategy.com,www.microstrategy.com,4,0,1,1,0,0,42.0240126,-74.8797797
2341,2341,West New Goods,301 S Bowen Rd,76013,TX,Texas,Arlington,USA,1.888.537.8135,info@microstrategy.com,www.microstrategy.com,4,1,1,0,1,0,32.732864,-97.148328
6940,6940,General Store Associates,Dublin Rd Tuam,NULL,GAL,NULL,Galway,Ireland,1.888.537.8135,info@microstrategy.com,www.microstrategy.com,3,0,1,0,0,1,53.5077941,-8.8392882
2343,2343,Old West Dollar,10260 Baltimore Ave Ste L,20740,MD,Maryland,College Park,USA,1.888.537.8135,info@microstrategy.com,www.microstrategy.com,3,0,1,1,0,0,39.0216688,-76.9251925
2344,2344,New Associates Enterprise,901 Bridgeton Pike,08062,NJ,New Jersey,Mullica Hill,USA,1.888.537.8135,info@microstrategy.com,www.microstrategy.com,4,0,0,1,1,0,39.668528,-75.2095428
2345,2345,General Main East,4740 Table Mesa Dr Ste B,80305,CO,Colorado,Boulder,USA,1.888.537.8135,info@microstrategy.com,www.microstrategy.com,4,0,1,0,0,0,39.985035,-105.2380079
2346,2346,USA USA Lead,11414 Caves Rd,44026,OH,Ohio,Chesterland,USA,1.888.537.8135,info@microstrategy.com,www.microstrategy.com,3,0,1,0,0,1,41.563223,-81.361749
2347,2347,Cents Cents Group,193 S Ventu Park Rd,91320,CA,California,Newbury Park,USA,1.888.537.8135,info@microstrategy.com,www.microstrategy.com,3,0,1,0,1,0,34.174739,-118.910432
2348,2348,New Export Best,304 Shelburne Center Rd,01370,MA,Massachusetts,Shelburne Falls,USA,1.888.537.8135,info@microstrategy.com,www.microstrategy.com,3,1,1,1,1,0,42.5924703,-72.682452
2349,2349,General The Group,15 Coastal Market Dr,04543,ME,Maine,Damariscotta,USA,1.888.537.8135,info@microstrategy.com,www.microstrategy.com,5,0,0,0,0,0,NULL,NULL
2350,2350,No.1 Modern Winter,2300 Merrick St,76107,TX,Texas,Fort Worth,USA,1.888.537.8135,info@microstrategy.com,www.microstrategy.com,4,0,1,0,0,1,32.7377198,-97.3986928
2351,2351,Hot Group Best,207 W Washington St,62260,IL,Illinois,Millstadt,USA,1.888.537.8135,info@microstrategy.com,www.microstrategy.com,5,1,0,0,0,0,38.4614565,-90.0943631
2352,2352,Cold New Store,555 12th St NW Ste 630,20004,DC,District of Columbia,Washington,USA,1.888.537.8135,info@microstrategy.com,www.microstrategy.com,3,0,0,0,1,0,38.8966997,-77.0276021
2353,2353,East General Associates,1492 Hwy 315,60499,PA,Pennsylvania,Wilkes Barre,USA,1.888.537.8135,info@microstrategy.com,www.microstrategy.com,5,1,1,0,1,0,NULL,NULL
2354,2354,Best Summer Best,11 Lee St,21401,MD,Maryland,Annapolis,USA,1.888.537.8135,info@microstrategy.com,www.microstrategy.com,4,0,0,0,0,0,38.979854,-76.5277092
2355,2355,Best North Enterprise,0 Brattle St,02138,MA,Massachusetts,Cambridge,USA,1.888.537.8135,info@microstrategy.com,www.microstrategy.com,3,0,0,1,0,1,42.3733942,-71.1196382
2356,2356,Best Rural Hot,85 S County Center Way,63129,MO,Missouri,Saint Louis,USA,1.888.537.8135,info@microstrategy.com,www.microstrategy.com,5,1,1,1,1,1,38.5043922,-90.3285899
2357,2357,Associates Design Cents,2211 N Elston Ave Ste 203,60614,IL,Illinois,Chicago,USA,1.888.537.8135,info@microstrategy.com,www.microstrategy.com,5,0,0,0,0,0,41.922283,-87.672209
2358,2358,Store Lead Old,Default 5658 Riverdale Rd,30349,GA,Georgia,Atlanta,USA,1.888.537.8135,info@microstrategy.com,www.microstrategy.com,4,0,0,1,1,0,33.600766,-84.42765
2359,2359,No.1 Associates Main,6035 Fort Caroline Rd,32277,FL,Florida,Jacksonville,USA,1.888.537.8135,info@microstrategy.com,www.microstrategy.com,1,1,1,1,1,0,30.36674,-81.597093
2360,2360,Main Design Spring,306 W State St,14760,NY,New York,Olean,USA,1.888.537.8135,info@microstrategy.com,www.microstrategy.com,5,0,0,0,0,0,42.0774847,-78.4328644
2361,2361,Old Old Spring,633 Court St,48661,MI,Michigan,West Branch,USA,1.888.537.8135,info@microstrategy.com,www.microstrategy.com,4,1,0,1,0,1,44.2690639,-84.2463356
2362,2362,Cents Goods Design,1301 Pennsylvania Ave NW Ste 500,20004,DC,District of Columbia,Washington,USA,1.888.537.8135,info@microstrategy.com,www.microstrategy.com,2,1,1,1,0,1,38.89597,-77.030353
9427,9427,Import New Old,Main St Newbridge,NULL,KID,NULL,Kildare,Ireland,1.888.537.8135,info@microstrategy.com,www.microstrategy.com,1,0,0,1,1,1,53.1813447,-6.7961398
2364,2364,Design .com General,2137 S Grand Ave,92705,CA,California,Santa Ana,USA,1.888.537.8135,info@microstrategy.com,www.microstrategy.com,4,1,0,1,0,1,33.7174926,-117.8505413
2365,2365,Lead Fall Old,2200 W Higgins Rd Ste 305,60169,IL,Illinois,Hoffman Estates,USA,1.888.537.8135,info@microstrategy.com,www.microstrategy.com,3,1,1,0,0,0,42.056861,-88.134537
2366,2366,Inc Summer Dollar, 10 Hybris Business Park Warmwell Rd Crossways,NULL,NULL,NULL, Dorchester,United Kingdom,1.888.537.8135,info@microstrategy.com,www.microstrategy.com,3,0,0,1,0,0,43.469722,-91.510833
2367,2367,Summer Old Winter,13168 Sandoval St,90670,CA,California,Santa Fe Springs,USA,1.888.537.8135,info@microstrategy.com,www.microstrategy.com,4,1,1,0,0,1,33.936979,-118.053018
2368,2368,Dollar Store Associates,500 W Overland Ave Ste 300,79901,TX,Texas,El Paso,USA,1.888.537.8135,info@microstrategy.com,www.microstrategy.com,5,0,1,0,0,0,31.755243,-106.493144
2369,2369,No.1 The West,9476 Haber Rd,45315,OH,Ohio,Clayton,USA,1.888.537.8135,info@microstrategy.com,www.microstrategy.com,1,1,0,1,1,0,39.8811157,-84.3405736
2370,2370,Hot Store Cents,8710 Earhart Ln SW,52404,IA,Iowa,Cedar Rapids,USA,1.888.537.8135,info@microstrategy.com,www.microstrategy.com,3,1,1,0,0,0,41.8916399,-91.6742806
2371,2371,Store USA Cents,610 9th St SW,20024,DC,District of Columbia,Washington,USA,1.888.537.8135,info@microstrategy.com,www.microstrategy.com,4,0,0,0,0,1,38.881899,-77.02373
2372,2372,Cents Cents Export,23-41 Willowdale Place,NULL,NULL,NULL,Aberdeen,United Kingdom,1.888.537.8135,info@microstrategy.com,www.microstrategy.com,3,1,0,0,0,1,57.153081,-2.097619
2373,2373,South Cold Summer,620 State St,68801,NE,Nebraska,Grand Island,USA,1.888.537.8135,info@microstrategy.com,www.microstrategy.com,3,0,0,1,1,0,40.9384637,-98.3551007
2374,2374,New Old West,10464 Bryan Hwy,49265,MI,Michigan,Onsted,USA,1.888.537.8135,info@microstrategy.com,www.microstrategy.com,1,0,1,0,0,1,42.0375262,-84.1609814
2375,2375,Design Cold Old,155 Joliet St SW Apt 201,20032,DC,District of Columbia,Washington,USA,1.888.537.8135,info@microstrategy.com,www.microstrategy.com,4,1,1,0,0,0,38.820012,-77.009074
2376,2376,Enterprise No.1 USA,7820 Enchanted Hills Blvd NE,87144,NM,New Mexico,Rio Rancho,USA,1.888.537.8135,info@microstrategy.com,www.microstrategy.com,1,0,0,1,0,0,35.3232608,-106.5788693
2377,2377,First Rural First,911 N Simpson Dr,64093,MO,Missouri,Warrensburg,USA,1.888.537.8135,info@microstrategy.com,www.microstrategy.com,2,1,0,0,0,0,38.7828628,-93.7379126
2378,2378,Goods Main Best,4856 Augusta Hwy,29070,SC,South Carolina,Leesville,USA,1.888.537.8135,info@microstrategy.com,www.microstrategy.com,3,0,0,1,0,0,33.9521181,-81.4214754
2379,2379,New .com New, 1 Earlsfield Road,NULL,NULL,NULL, London,United Kingdom,1.888.537.8135,info@microstrategy.com,www.microstrategy.com,3,1,0,1,1,0,51.4512695,-0.1806036
2380,2380,First Cold Inc,41 Washington Ave,49417,MI,Michigan,Grand Haven,USA,1.888.537.8135,info@microstrategy.com,www.microstrategy.com,1,0,0,0,1,0,43.064996,-86.232681
2381,2381,Group Lead Old,2945 Jewett Ave,46322,IN,Indiana,Highland,USA,1.888.537.8135,info@microstrategy.com,www.microstrategy.com,2,1,1,1,0,0,41.5545649,-87.4581844
2382,2382,Modern Cold The,970 Branchview Dr NE Ste 220,28025,NC,North Carolina,Concord,USA,1.888.537.8135,info@microstrategy.com,www.microstrategy.com,3,0,1,0,1,0,35.443968,-80.595876
2383,2383,Best Design North,2937 Bristol St,92626,CA,California,Costa Mesa,USA,1.888.537.8135,info@microstrategy.com,www.microstrategy.com,1,1,0,0,0,0,33.678037,-117.886715
2384,2384,USA Spring Goods,1376 Saint Gotthard Ave,99508,AK,Alaska,Anchorage,USA,1.888.537.8135,info@microstrategy.com,www.microstrategy.com,3,0,0,1,0,0,61.184478,-149.856727
2385,2385,Summer .com Fall,2131 US Highway 601 N,27028,NC,North Carolina,Mocksville,USA,1.888.537.8135,info@microstrategy.com,www.microstrategy.com,4,0,0,0,0,0,35.938823,-80.602334
2386,2386,Urban Winter Import,5226 Bardstown Rd,40291,KY,Kentucky,Louisville,USA,1.888.537.8135,info@microstrategy.com,www.microstrategy.com,5,1,1,1,1,0,38.1703643,-85.6074324
2387,2387,General Import Export,5125 Roland Ave,21210,MD,Maryland,Baltimore,USA,1.888.537.8135,info@microstrategy.com,www.microstrategy.com,5,1,0,1,0,0,39.355781,-76.6345161
2388,2388,New Cents No.1,661 SE Baseline St,97123,OR,Oregon,Hillsboro,USA,1.888.537.8135,info@microstrategy.com,www.microstrategy.com,2,1,1,1,0,0,45.5200494,-122.9797118
2389,2389,Dollar The Cold,2201 Wisconsin Ave NW,20007,DC,District of Columbia,Washington,USA,1.888.537.8135,info@microstrategy.com,www.microstrategy.com,5,0,1,0,0,0,38.919457,-77.070189
2390,2390,Inc No.1 Group,60 Saginaw Dr,14623,NY,New York,Rochester,USA,1.888.537.8135,info@microstrategy.com,www.microstrategy.com,3,1,0,1,0,0,43.083573,-77.592354
2391,2391,Goods Cold First,117 25th St S,35210,AL,Alabama,Irondale,USA,1.888.537.8135,info@microstrategy.com,www.microstrategy.com,4,1,1,0,1,0,33.5423615,-86.6961043
2392,2392,First Group Modern,5576 State Route 14,14837,NY,New York,Dundee,USA,1.888.537.8135,info@microstrategy.com,www.microstrategy.com,3,1,1,1,0,0,42.492483,-76.926483
2393,2393,Store Rural Urban,230 Portion Rd,11779,NY,New York,Ronkonkoma,USA,1.888.537.8135,info@microstrategy.com,www.microstrategy.com,3,0,1,0,0,1,40.8269152,-73.1039625
2394,2394,Associates Winter Main,1101 E Ocotillo Rd,85014,AZ,Arizona,Phoenix,USA,1.888.537.8135,info@microstrategy.com,www.microstrategy.com,2,0,0,1,1,0,33.534141,-112.058252
2395,2395,Dollar Store Urban,3205 Summer Ave,38112,TN,Tennessee,Memphis,USA,1.888.537.8135,info@microstrategy.com,www.microstrategy.com,5,0,1,1,0,0,35.1493481,-89.9541049
2396,2396,Spring Enterprise General,11215 New Hampshire Ave,20904,MD,Maryland,Silver Spring,USA,1.888.537.8135,info@microstrategy.com,www.microstrategy.com,3,0,1,1,0,0,39.0416639,-76.9912661
2397,2397,The Best New,1760 Dekalb Pike,19422,PA,Pennsylvania,Blue Bell,USA,1.888.537.8135,info@microstrategy.com,www.microstrategy.com,5,1,1,1,0,0,40.1498052,-75.3067356
2398,2398,Winter First North,455 Eisenhower Dr,17331,PA,Pennsylvania,Hanover,USA,1.888.537.8135,info@microstrategy.com,www.microstrategy.com,4,1,0,1,0,0,39.8253811,-76.9739495
2399,2399,Rural USA South,580 N Davis Dr,31093,GA,Georgia,Warner Robins,USA,1.888.537.8135,info@microstrategy.com,www.microstrategy.com,3,1,0,1,0,0,32.633562,-83.6121919
2400,2400,Goods Goods Goods,6451 Marlboro Pike,20747,MD,Maryland,District Heights,USA,1.888.537.8135,info@microstrategy.com,www.microstrategy.com,2,0,0,1,0,0,38.8530452,-76.8964916
2401,2401,Export Winter Hot,948 Bay Ridge Rd,21403,MD,Maryland,Annapolis,USA,1.888.537.8135,info@microstrategy.com,www.microstrategy.com,5,1,0,0,1,0,38.947959,-76.4881982
2402,2402,First Summer No.1,1921 Butler Pike,16137,PA,Pennsylvania,Mercer,USA,1.888.537.8135,info@microstrategy.com,www.microstrategy.com,4,1,0,0,1,0,41.1493393,-80.156918
2403,2403,Associates New Lead,3830 Main St,19543,PA,Pennsylvania,Morgantown,USA,1.888.537.8135,info@microstrategy.com,www.microstrategy.com,3,1,1,1,0,0,40.1531637,-75.8981815
2404,2404,First Cents Main,5700 6th Ave,16602,PA,Pennsylvania,Altoona,USA,1.888.537.8135,info@microstrategy.com,www.microstrategy.com,4,1,0,0,0,0,40.4728665,-78.424616
2405,2405,.com Group Hot,765 Benner Pike,16801,PA,Pennsylvania,State College,USA,1.888.537.8135,info@microstrategy.com,www.microstrategy.com,1,1,0,0,0,1,40.835859,-77.801764
2406,2406,Fall Spring First,425 Broad St,06040,CT,Connecticut,Manchester,USA,1.888.537.8135,info@microstrategy.com,www.microstrategy.com,4,0,0,1,0,0,41.77356,-72.532116
2407,2407,Export Fall South,82 Worcester Rd,01570,MA,Massachusetts,Webster,USA,1.888.537.8135,info@microstrategy.com,www.microstrategy.com,2,0,0,1,1,0,42.0704807,-71.8663533
2408,2408,USA Design Goods,92 Cluff Crossing Rd,03079,NH,New Hampshire,Salem,USA,1.888.537.8135,info@microstrategy.com,www.microstrategy.com,4,1,1,1,0,0,42.7653014,-71.2184706
8345,8345,Rural Cold Hot,Guardwell Kinsale,NULL,COR,NULL,Cork,Ireland,1.888.537.8135,info@microstrategy.com,www.microstrategy.com,3,1,1,1,0,0,51.7058663,-8.5246652
1474,1474,General Old Dollar,Baltimore Rd Skibbereen W Cork Ireland,NULL,COR,NULL,Cork,Ireland,1.888.537.8135,info@microstrategy.com,www.microstrategy.com,1,1,1,1,0,0,51.5395857,-9.2749319
2411,2411,Summer Export Summer,12195 S Orange Blossom Trl,32837,FL,Florida,Orlando,USA,1.888.537.8135,info@microstrategy.com,www.microstrategy.com,5,0,1,1,0,0,28.389086,-81.402992
2412,2412,Cold Design Inc,1657 N Hiatus Rd,33026,FL,Florida,Pembroke Pines,USA,1.888.537.8135,info@microstrategy.com,www.microstrategy.com,4,1,1,0,1,0,26.021539,-80.298395
2413,2413,Store Winter USA,2463 Hamilton Mill Pkwy,30519,GA,Georgia,Buford,USA,1.888.537.8135,info@microstrategy.com,www.microstrategy.com,3,1,1,0,0,0,34.0737383,-83.9176542
2414,2414,Summer Modern South,2595 N Atlantic Ave,32118,FL,Florida,Daytona Beach,USA,1.888.537.8135,info@microstrategy.com,www.microstrategy.com,1,1,1,1,0,1,29.2630142,-81.0262094
2415,2415,Store West Urban,2750 Buford Hwy,30518,GA,Georgia,Buford,USA,1.888.537.8135,info@microstrategy.com,www.microstrategy.com,5,0,0,1,1,0,34.1315979,-83.985733
2416,2416,Inc Hot Summer,282 Shopping Ave,34237,FL,Florida,Sarasota,USA,1.888.537.8135,info@microstrategy.com,www.microstrategy.com,3,1,0,0,0,0,27.333596,-82.5241742
2417,2417,East North Store,4860 Davis Blvd,34104,FL,Florida,Naples,USA,1.888.537.8135,info@microstrategy.com,www.microstrategy.com,1,1,1,1,0,1,26.1385482,-81.7489112
2418,2418,Store Lead Goods,580 Atlanta Rd,30040,GA,Georgia,Cumming,USA,1.888.537.8135,info@microstrategy.com,www.microstrategy.com,2,1,0,0,0,0,34.187381,-84.138532
2419,2419,General No.1 Design,5950 Coral Ridge Dr,33076,FL,Florida,Coral Springs,USA,1.888.537.8135,info@microstrategy.com,www.microstrategy.com,1,0,0,1,0,0,26.305135,-80.280324
2420,2420,Inc Goods Group,5997 S Pointe Blvd,33919,FL,Florida,Fort Myers,USA,1.888.537.8135,info@microstrategy.com,www.microstrategy.com,3,1,0,0,0,0,26.5565203,-81.9040944
2421,2421,Import Main First,7050 Seminole Pratt Whitney Rd,33470,FL,Florida,Loxahatchee,USA,1.888.537.8135,info@microstrategy.com,www.microstrategy.com,4,1,1,1,1,0,26.7801009,-80.2945434
2422,2422,Export Old USA,8160 Wiles Rd,33067,FL,Florida,Coral Springs,USA,1.888.537.8135,info@microstrategy.com,www.microstrategy.com,3,0,1,0,0,0,26.2866793,-80.2342326
2423,2423,Goods Main Goods,8244 Navarre Pkwy,32566,FL,Florida,Navarre,USA,1.888.537.8135,info@microstrategy.com,www.microstrategy.com,5,1,1,0,1,0,30.4021839,-86.8792418
2424,2424,North Store Store,100 Sugar Run Rd,15370,PA,Pennsylvania,Waynesburg,USA,1.888.537.8135,info@microstrategy.com,www.microstrategy.com,4,1,1,0,1,0,39.8951653,-80.1692838
2425,2425,Enterprise Best Enterprise, Woodfield Rd Industrial Estate Woodfield Rd,NULL,NULL,NULL, Doncaster,United Kingdom,1.888.537.8135,info@microstrategy.com,www.microstrategy.com,4,1,0,1,0,0,53.502315,-1.146803
2426,2426,Group Old First,14357 W Colfax Ave,80401,CO,Colorado,Lakewood,USA,1.888.537.8135,info@microstrategy.com,www.microstrategy.com,2,1,0,0,0,1,39.735343,-105.161862
2427,2427,No.1 Summer Enterprise,2201 Preston Rd,75093,TX,Texas,Plano,USA,1.888.537.8135,info@microstrategy.com,www.microstrategy.com,5,1,0,0,0,1,33.029962,-96.796631
2428,2428,East Dollar .com,2655 Pacific Coast Hwy,90505,CA,California,Torrance,USA,1.888.537.8135,info@microstrategy.com,www.microstrategy.com,2,1,1,1,0,0,33.7917132,-118.3326214
2429,2429,Winter Enterprise Inc, 22 Finch Lea Dr Liverpool,NULL,NULL,NULL, Liverpool,United Kingdom,1.888.537.8135,info@microstrategy.com,www.microstrategy.com,1,0,0,0,0,0,53.4240565,-2.8723402
2430,2430,Modern Cents Modern,2847 Park Ave,92782,CA,California,Tustin,USA,1.888.537.8135,info@microstrategy.com,www.microstrategy.com,3,0,1,0,1,0,33.6982786,-117.8268914
2431,2431,East Summer Dollar,327 Russell St,01035,MA,Massachusetts,Hadley,USA,1.888.537.8135,info@microstrategy.com,www.microstrategy.com,2,1,1,0,1,0,42.3556232,-72.5551703
2432,2432,Store Summer Import,41 Miller St,27104,NC,North Carolina,Winston Salem,USA,1.888.537.8135,info@microstrategy.com,www.microstrategy.com,3,0,1,1,0,0,36.0955587,-80.2752152
2433,2433,Store New New,414 Miller Ave,94941,CA,California,Mill Valley,USA,1.888.537.8135,info@microstrategy.com,www.microstrategy.com,1,1,0,1,1,0,37.8964075,-122.5360025
2434,2434,Urban Cold USA,429 N Broadway,11753,NY,New York,Jericho,USA,1.888.537.8135,info@microstrategy.com,www.microstrategy.com,1,1,0,0,0,0,40.7884261,-73.5355686
2435,2435,Goods .com North,550 Bowie Street,78703,TX,Texas,Austin,USA,1.888.537.8135,info@microstrategy.com,www.microstrategy.com,1,1,1,0,0,0,30.2703692,-97.7528567
2436,2436,Spring Modern Hot,5930 Roswell Rd NE,30328,GA,Georgia,Atlanta,USA,1.888.537.8135,info@microstrategy.com,www.microstrategy.com,3,1,0,1,1,0,33.916583,-84.381351
2437,2437,The Modern Lead,7485 SW Bridgeport Rd,97224,OR,Oregon,Portland,USA,1.888.537.8135,info@microstrategy.com,www.microstrategy.com,1,0,0,0,0,0,45.3934916,-122.7542519
2438,2438,East Best Hot,833 Wayne Ave,20910,MD,Maryland,Silver Spring,USA,1.888.537.8135,info@microstrategy.com,www.microstrategy.com,4,1,1,1,1,0,38.996833,-77.023842
2439,2439,The Store New,8815 Welbeck Way,20886,MD,Maryland,Montgomery Village,USA,1.888.537.8135,info@microstrategy.com,www.microstrategy.com,3,1,1,0,0,0,39.187193,-77.183972
2440,2440,New North Group,2155 Golden Centre Ln,95670,CA,California,Rancho Cordova,USA,1.888.537.8135,info@microstrategy.com,www.microstrategy.com,2,0,1,0,1,0,38.6259028,-121.2647157
2441,2441,South General Store,2400 Sand Creek Rd,94513,CA,California,Brentwood,USA,1.888.537.8135,info@microstrategy.com,www.microstrategy.com,5,1,0,0,1,0,37.9449326,-121.73832
2442,2442,Summer East Dollar,3430 Tully Rd,95350,CA,California,Modesto,USA,1.888.537.8135,info@microstrategy.com,www.microstrategy.com,2,0,1,1,0,0,37.688377,-121.011308
2443,2443,Group South South,6119 Horseshoe Bar Rd,95650,CA,California,Loomis,USA,1.888.537.8135,info@microstrategy.com,www.microstrategy.com,2,1,0,1,0,0,38.8182029,-121.188542
2444,2444,Enterprise Import Urban,1299 Cox Ave,41018,KY,Kentucky,Erlanger,USA,1.888.537.8135,info@microstrategy.com,www.microstrategy.com,4,1,1,0,0,0,NULL,NULL
2445,2445,Design Lead The,2003 N Broadway St,37917,TN,Tennessee,Knoxville,USA,1.888.537.8135,info@microstrategy.com,www.microstrategy.com,4,1,1,0,0,0,35.9908135,-83.9200774
2446,2446,Rural First Cold,16411 Bellflower Blvd,90706,CA,California,Bellflower,USA,1.888.537.8135,info@microstrategy.com,www.microstrategy.com,1,1,0,0,0,0,33.885239,-118.125599
2447,2447,Enterprise .com Lead, 24 N John St Liverpool,NULL,NULL,NULL, Liverpool,United Kingdom,1.888.537.8135,info@microstrategy.com,www.microstrategy.com,5,1,1,1,0,1,53.4061389,-2.9885534
2448,2448,Associates Associates Modern, 24 Hardman St,NULL,NULL,NULL, Liverpool,United Kingdom,1.888.537.8135,info@microstrategy.com,www.microstrategy.com,2,1,1,1,1,1,53.4015914,-2.9708993
2449,2449,New Store Best,12846 State Route 772,45601,OH,Ohio,Chillicothe,USA,1.888.537.8135,info@microstrategy.com,www.microstrategy.com,3,1,1,1,0,0,39.3196457,-82.9792221
2450,2450,Dollar No.1 Cold,3120 Donnell Dr,20747,MD,Maryland,District Heights,USA,1.888.537.8135,info@microstrategy.com,www.microstrategy.com,4,0,0,1,0,0,38.8474425,-76.8849725
2451,2451,East Old Enterprise,719 Ridge Rd,46321,IN,Indiana,Munster,USA,1.888.537.8135,info@microstrategy.com,www.microstrategy.com,3,1,0,0,0,0,41.5615683,-87.5109199
2452,2452,.com Inc East,1100 New Salem Rd,37129,TN,Tennessee,Murfreesboro,USA,1.888.537.8135,info@microstrategy.com,www.microstrategy.com,5,0,0,0,0,1,35.8338939,-86.4108761
2453,2453,General No.1 Fall,1776 W Northfield Blvd,37129,TN,Tennessee,Murfreesboro,USA,1.888.537.8135,info@microstrategy.com,www.microstrategy.com,4,0,0,0,1,1,35.8703982,-86.4134921
2454,2454,Design South Cents,1851 Florence Rd,21771,MD,Maryland,Mount Airy,USA,1.888.537.8135,info@microstrategy.com,www.microstrategy.com,5,1,1,1,0,0,39.319033,-77.141816
2455,2455,USA Summer Associates,2772 Aborn Rd,95121,CA,California,San Jose,USA,1.888.537.8135,info@microstrategy.com,www.microstrategy.com,4,1,1,0,0,0,37.3137442,-121.7924008
2456,2456,Enterprise General Export,108 S Cross St,21620,MD,Maryland,Chestertown,USA,1.888.537.8135,info@microstrategy.com,www.microstrategy.com,4,0,0,0,1,0,39.208823,-76.067038
2457,2457,Main Main Lead,400 N Center St,21157,MD,Maryland,Westminster,USA,1.888.537.8135,info@microstrategy.com,www.microstrategy.com,5,0,0,1,1,1,39.575424,-76.9832731
2458,2458,Enterprise Design Dollar,20 Morningside Rd Aberdeen,NULL,NULL,NULL,Aberdeen,United Kingdom,1.888.537.8135,info@microstrategy.com,www.microstrategy.com,4,0,1,1,0,0,57.1285674,-2.1370621
2459,2459,Export Spring Import,2111 NW 10th Ave,33127,FL,Florida,Miami,USA,1.888.537.8135,info@microstrategy.com,www.microstrategy.com,5,1,0,1,0,0,25.796283,-80.210908
2460,2460,New Design Import,1060 Castro St,94040,CA,California,Mountain View,USA,1.888.537.8135,info@microstrategy.com,www.microstrategy.com,5,1,0,1,0,0,37.384618,-122.085016
2461,2461,First Main Urban, 1 Hyde Gardens Eastbourne,NULL,NULL,NULL, Eastbourne,United Kingdom,1.888.537.8135,info@microstrategy.com,www.microstrategy.com,4,1,1,1,0,0,50.7681148,0.2839258
2462,2462,No.1 Goods First,9100 Keystone Xing,46240,IN,Indiana,Indianapolis,USA,1.888.537.8135,info@microstrategy.com,www.microstrategy.com,5,0,0,1,1,0,39.919035,-86.111205
2463,2463,.com Old Cold,2520 Airline Dr,77009,TX,Texas,Houston,USA,1.888.537.8135,info@microstrategy.com,www.microstrategy.com,4,1,0,1,1,0,29.810636,-95.379739
2464,2464,North Goods Cents,27 W Main St,47327,IN,Indiana,Cambridge City,USA,1.888.537.8135,info@microstrategy.com,www.microstrategy.com,5,1,0,1,0,0,39.812841,-85.170829
2465,2465,Rural Goods No.1,117 W 1st St,50674,IA,Iowa,Sumner,USA,1.888.537.8135,info@microstrategy.com,www.microstrategy.com,2,0,0,1,0,0,42.847183,-92.098714
2466,2466,USA The Design,5801 SW Lakefront Ln S,64504,MO,Missouri,Saint Joseph,USA,1.888.537.8135,info@microstrategy.com,www.microstrategy.com,3,1,1,1,0,0,39.7146996,-94.900612
2467,2467,Goods Modern Summer,3504 W Moreland Rd,19090,PA,Pennsylvania,Willow Grove,USA,1.888.537.8135,info@microstrategy.com,www.microstrategy.com,4,0,1,0,0,0,40.1506408,-75.1327088
2468,2468,Cold Store New,7002 Reisterstown Rd,21215,MD,Maryland,Baltimore,USA,1.888.537.8135,info@microstrategy.com,www.microstrategy.com,3,0,0,0,0,0,39.362114,-76.711105
2469,2469,West Dollar Goods, 20 Chapel Ln Formby,NULL,NULL,NULL, Liverpool,United Kingdom,1.888.537.8135,info@microstrategy.com,www.microstrategy.com,1,1,1,0,0,0,53.5568464,-3.0609439
2470,2470,General Export Inc,2501 S Center St Ste A,50158,IA,Iowa,Marshalltown,USA,1.888.537.8135,info@microstrategy.com,www.microstrategy.com,3,1,0,1,1,0,42.016779,-92.912328
2471,2471,Rural No.1 Spring,1900 W 60th St,33012,FL,Florida,Hialeah,USA,1.888.537.8135,info@microstrategy.com,www.microstrategy.com,2,1,1,0,0,0,25.876512,-80.321849
2472,2472,Modern East Urban,23 N Main St,62411,IL,Illinois,Altamont,USA,1.888.537.8135,info@microstrategy.com,www.microstrategy.com,4,0,0,1,0,0,39.0599421,-88.7479367
2473,2473,General USA Export,2201 44th Ave N,55412,MN,Minnesota,Minneapolis,USA,1.888.537.8135,info@microstrategy.com,www.microstrategy.com,5,1,0,1,0,0,45.0354324,-93.3085766
2474,2474,.com First Best,504 E 8th Ave,15120,PA,Pennsylvania,Homestead,USA,1.888.537.8135,info@microstrategy.com,www.microstrategy.com,5,0,0,0,0,0,40.408797,-79.905193
2475,2475,Associates USA Inc,471 Farmington Ave,06105,CT,Connecticut,Hartford,USA,1.888.537.8135,info@microstrategy.com,www.microstrategy.com,4,1,1,0,0,0,41.766722,-72.7070091
2476,2476,Rural South Summer,2716 W Main St Ste 1,72801,AR,Arkansas,Russellville,USA,1.888.537.8135,info@microstrategy.com,www.microstrategy.com,3,0,0,1,1,0,35.285415,-93.165702
2477,2477,Main Summer The,12010 Woodruff Ave Ste E,90241,CA,California,Downey,USA,1.888.537.8135,info@microstrategy.com,www.microstrategy.com,2,1,0,1,0,0,33.9255826,-118.1166698
2478,2478,Store Spring Dollar,101 North Rd,16001,PA,Pennsylvania,Butler,USA,1.888.537.8135,info@microstrategy.com,www.microstrategy.com,2,0,1,0,0,1,40.888397,-79.981019
2479,2479,Dollar Dollar General,321 SW 6th St,33315,FL,Florida,Fort Lauderdale,USA,1.888.537.8135,info@microstrategy.com,www.microstrategy.com,1,1,1,0,0,0,26.1147036,-80.1463791
2480,2480,Store Best Store,10542 Norwalk Blvd,90670,CA,California,Santa Fe Springs,USA,1.888.537.8135,info@microstrategy.com,www.microstrategy.com,4,1,0,1,0,0,33.9391029,-118.0726826
2481,2481,Cents Import Spring,57 Mill Hill Rd,12498,NY,New York,Woodstock,USA,1.888.537.8135,info@microstrategy.com,www.microstrategy.com,2,0,0,1,0,1,42.039668,-74.114893
2482,2482,Main Best Store,888 16th St NW Ste 800,20006,DC,District of Columbia,Washington,USA,1.888.537.8135,info@microstrategy.com,www.microstrategy.com,4,1,1,0,0,0,38.900894,-77.036731
2483,2483,Hot Store Enterprise,15 College Hwy 15,01073,MA,Massachusetts,Southampton,USA,1.888.537.8135,info@microstrategy.com,www.microstrategy.com,5,1,0,1,1,0,42.2518418,-72.6997306
2484,2484,Fall Export Summer,180 Central St,61362,IL,Illinois,Spring Valley,USA,1.888.537.8135,info@microstrategy.com,www.microstrategy.com,3,1,1,1,1,1,41.3258094,-89.1803268
2485,2485,Spring The Dollar,205 21st St,15222,PA,Pennsylvania,Pittsburgh,USA,1.888.537.8135,info@microstrategy.com,www.microstrategy.com,5,0,1,0,0,0,40.4515125,-79.9828922
2486,2486,Design Old Summer,6698 Orchard Lake Rd,48322,MI,Michigan,West Bloomfield,USA,1.888.537.8135,info@microstrategy.com,www.microstrategy.com,3,1,0,1,1,0,42.5481214,-83.3609879
2487,2487,East Urban Rural,1490 S Wadsworth Blvd,80232,CO,Colorado,Lakewood,USA,1.888.537.8135,info@microstrategy.com,www.microstrategy.com,5,0,1,1,0,0,39.689758,-105.0811
2488,2488,Import Best No.1,206 S Walnut St,47305,IN,Indiana,Muncie,USA,1.888.537.8135,info@microstrategy.com,www.microstrategy.com,1,0,0,0,0,0,40.1927503,-85.3864963
2489,2489,General No.1 Import,10355 Walden Glen Ct,32256,FL,Florida,Jacksonville,USA,1.888.537.8135,info@microstrategy.com,www.microstrategy.com,4,1,0,1,0,0,30.214775,-81.5367009
2490,2490,Spring South Associates,914 Bay Ridge Rd Ste 5,21403,MD,Maryland,Annapolis,USA,1.888.537.8135,info@microstrategy.com,www.microstrategy.com,4,1,0,1,0,0,38.9485557,-76.4893519
2491,2491,Urban First Spring,2706 Hamils Ct,21114,MD,Maryland,Crofton,USA,1.888.537.8135,info@microstrategy.com,www.microstrategy.com,4,1,1,1,0,0,39.022137,-76.685295
2492,2492,Design Modern Modern,125 Remount Rd Ste D,28203,NC,North Carolina,Charlotte,USA,1.888.537.8135,info@microstrategy.com,www.microstrategy.com,3,1,0,1,1,0,35.2033382,-80.8666189
2493,2493,Old Lead Spring,110 N Washington St Ste 402,20850,MD,Maryland,Rockville,USA,1.888.537.8135,info@microstrategy.com,www.microstrategy.com,4,1,0,1,0,0,39.08543,-77.153475
2494,2494,Export Cold Group,9469 W Knottingham Dr,83704,ID,Idaho,Boise,USA,1.888.537.8135,info@microstrategy.com,www.microstrategy.com,3,1,1,1,0,0,43.654514,-116.300019
2495,2495,No.1 Modern Modern,3301 O St,68510,NE,Nebraska,Lincoln,USA,1.888.537.8135,info@microstrategy.com,www.microstrategy.com,4,1,0,0,0,1,40.81319,-96.672497
2496,2496,Group Goods USA,RR 6 Box 6040,18848,PA,Pennsylvania,Towanda,USA,1.888.537.8135,info@microstrategy.com,www.microstrategy.com,5,1,1,0,1,0,NULL,NULL
2497,2497,General Winter Enterprise,601 W Center St,61530,IL,Illinois,Eureka,USA,1.888.537.8135,info@microstrategy.com,www.microstrategy.com,4,1,0,0,0,0,40.720317,-89.2817438
2498,2498,Import No.1 Enterprise,2 Westridge Dr Ste C,36870,AL,Alabama,Phenix City,USA,1.888.537.8135,info@microstrategy.com,www.microstrategy.com,3,0,0,1,0,0,NULL,NULL
2499,2499,Main East Rural,10501 Leopard St,78410,TX,Texas,Corpus Christi,USA,1.888.537.8135,info@microstrategy.com,www.microstrategy.com,3,0,1,0,0,0,27.838372,-97.57419
2500,2500,Store Design Fall,964 Florida Ave NW,20001,DC,District of Columbia,Washington,USA,1.888.537.8135,info@microstrategy.com,www.microstrategy.com,2,0,1,0,0,1,38.919673,-77.025485
2501,2501,Hot General South,600 S Alister St,78373,TX,Texas,Port Aransas,USA,1.888.537.8135,info@microstrategy.com,www.microstrategy.com,3,1,0,1,1,0,27.8296196,-97.0657538
2502,2502,The Winter Main,28 Hilton Drive,NULL,NULL,NULL,Aberdeen,United Kingdom,1.888.537.8135,info@microstrategy.com,www.microstrategy.com,4,0,0,1,0,0,57.1627634,-2.1278072
2503,2503,The Winter Dollar,811 6th St,87701,NM,New Mexico,Las Vegas,USA,1.888.537.8135,info@microstrategy.com,www.microstrategy.com,2,0,0,0,1,0,35.5970968,-105.2164738
2504,2504,New Summer Import,S5292 Bay View Rd,14075,NY,New York,Hamburg,USA,1.888.537.8135,info@microstrategy.com,www.microstrategy.com,1,1,0,0,0,0,NULL,NULL
2505,2505,Cents Old Winter,3030 SE Dominica Ter,34997,FL,Florida,Stuart,USA,1.888.537.8135,info@microstrategy.com,www.microstrategy.com,4,1,0,1,0,0,27.150868,-80.21286
2506,2506,No.1 Design First,9123 Santa Rita Rd,21236,MD,Maryland,Nottingham,USA,1.888.537.8135,info@microstrategy.com,www.microstrategy.com,4,1,1,0,1,0,39.396342,-76.45927
2507,2507,Cold Associates USA, 1 Creed Ln,NULL,NULL,NULL, London,United Kingdom,1.888.537.8135,info@microstrategy.com,www.microstrategy.com,5,1,0,1,1,0,51.5134041,-0.101095
2508,2508,Associates East Associates,3108 Horizon Dr Ste 8,72022,AR,Arkansas,Bryant,USA,1.888.537.8135,info@microstrategy.com,www.microstrategy.com,4,0,1,1,0,0,34.622873,-92.496525
2509,2509,First Urban No.1,8401 3rd Ave,11209,NY,New York,Brooklyn,USA,1.888.537.8135,info@microstrategy.com,www.microstrategy.com,3,1,0,0,0,0,40.62482,-74.030179
2510,2510,Best Store Main,709 Lorimer St,11211,NY,New York,Brooklyn,USA,1.888.537.8135,info@microstrategy.com,www.microstrategy.com,1,0,1,0,0,0,40.718056,-73.950115
2511,2511,Old Associates Hot,505 S Neil St Ste 7,61820,IL,Illinois,Champaign,USA,1.888.537.8135,info@microstrategy.com,www.microstrategy.com,3,1,0,0,0,0,40.1117209,-88.2435039
2512,2512,West Dollar Spring,368 Main St,01450,MA,Massachusetts,Groton,USA,1.888.537.8135,info@microstrategy.com,www.microstrategy.com,4,0,1,0,0,0,42.618483,-71.583946
2513,2513,Urban Enterprise Rural,500 Eastern Ave,01902,MA,Massachusetts,Lynn,USA,1.888.537.8135,info@microstrategy.com,www.microstrategy.com,4,0,1,1,0,0,42.4810545,-70.936031
2514,2514,Urban Import Main, 1 Cremer Business Centre 37 Cremer St,NULL,NULL,NULL, London,United Kingdom,1.888.537.8135,info@microstrategy.com,www.microstrategy.com,2,1,0,0,0,1,51.5306282,-0.0759681
2515,2515,.com Modern South,5060 S Fort Apache Rd,89148,NV,Nevada,Las Vegas,USA,1.888.537.8135,info@microstrategy.com,www.microstrategy.com,4,1,1,1,0,0,36.095567,-115.294997
2516,2516,Import First USA, 21 Seymour St Liverpool,NULL,NULL,NULL, Liverpool,United Kingdom,1.888.537.8135,info@microstrategy.com,www.microstrategy.com,5,1,0,1,0,0,53.4081231,-2.8940391
2517,2517,Goods Cold North,1525 Newton St NW,20010,DC,District of Columbia,Washington,USA,1.888.537.8135,info@microstrategy.com,www.microstrategy.com,2,0,0,1,0,0,38.933248,-77.036208
2518,2518,Modern West Inc,218 Haledon Ave,07508,NJ,New Jersey,Prospect Park,USA,1.888.537.8135,info@microstrategy.com,www.microstrategy.com,2,1,1,1,1,1,40.9329347,-74.1761459
2519,2519,Modern Winter Cold,2026 McCulloch Blvd N Ste C,86403,AZ,Arizona,Lake Havasu City,USA,1.888.537.8135,info@microstrategy.com,www.microstrategy.com,5,0,0,1,1,1,34.475986,-114.331389
2520,2520,Enterprise .com New,2980 S Ridgewood Ave,32141,FL,Florida,Edgewater,USA,1.888.537.8135,info@microstrategy.com,www.microstrategy.com,5,1,0,1,0,0,28.9486013,-80.8842333
2521,2521,Associates Rural Enterprise,1810 Harlem Rd,61111,IL,Illinois,Loves Park,USA,1.888.537.8135,info@microstrategy.com,www.microstrategy.com,3,1,0,0,0,0,42.341198,-89.030448
2522,2522,Enterprise Inc Goods,7634 Leavenworth Rd,66109,KS,Kansas,Kansas City,USA,1.888.537.8135,info@microstrategy.com,www.microstrategy.com,3,0,0,0,1,0,39.1431045,-94.7556195
2523,2523,South Import East,101 Clark St,11201,NY,New York,Brooklyn,USA,1.888.537.8135,info@microstrategy.com,www.microstrategy.com,5,1,1,0,0,0,40.6972541,-73.9921771
2524,2524,Cold Store Import,26 Abbotswell Crescent,NULL,NULL,NULL,Aberdeen,United Kingdom,1.888.537.8135,info@microstrategy.com,www.microstrategy.com,3,1,0,1,1,0,57.1245648,-2.10282
2525,2525,Goods Associates Spring,10321 Metropolitan Ave,11375,NY,New York,Forest Hills,USA,1.888.537.8135,info@microstrategy.com,www.microstrategy.com,5,1,0,0,1,0,40.7102085,-73.8491449
2526,2526,Dollar The Hot,27 Crown Ter,NULL,NULL,NULL,Aberdeen,United Kingdom,1.888.537.8135,info@microstrategy.com,www.microstrategy.com,5,0,1,0,0,0,57.1439953,-2.1012139
1557,1557,North Lead Fall,Skehard Rd Cork Ireland,NULL,COR,NULL,Cork,Ireland,1.888.537.8135,info@microstrategy.com,www.microstrategy.com,4,1,0,0,0,0,51.8897849,-8.4140066
2528,2528,Old Store Enterprise,102 Staples Rd,04049,ME,Maine,Limington,USA,1.888.537.8135,info@microstrategy.com,www.microstrategy.com,4,1,1,0,0,0,NULL,NULL
2529,2529,USA Main Store,40 Berkeley Rd,19333,PA,Pennsylvania,Devon,USA,1.888.537.8135,info@microstrategy.com,www.microstrategy.com,3,1,0,1,1,0,40.0467145,-75.414133
2530,2530,Main Hot Associates,934 W Cleveland Ave,46516,IN,Indiana,Elkhart,USA,1.888.537.8135,info@microstrategy.com,www.microstrategy.com,4,0,0,1,1,0,41.6719001,-85.9809566
2531,2531,West East Main, 20 Hornspit Ln W Derby,NULL,NULL,NULL, Liverpool,United Kingdom,1.888.537.8135,info@microstrategy.com,www.microstrategy.com,5,1,0,1,0,1,53.4371502,-2.9149924
2532,2532,Design Best Enterprise,112 S Elm St,52136,IA,Iowa,Cresco,USA,1.888.537.8135,info@microstrategy.com,www.microstrategy.com,5,1,1,0,0,0,43.3725532,-92.1166317
2533,2533,Associates First Lead,1250B Grumman Pl,32780,FL,Florida,Titusville,USA,1.888.537.8135,info@microstrategy.com,www.microstrategy.com,5,1,0,1,0,0,28.532991,-80.815642
2534,2534,Design North Summer,1396 Rose Blvd,32839,FL,Florida,Orlando,USA,1.888.537.8135,info@microstrategy.com,www.microstrategy.com,5,1,0,1,0,0,28.477524,-81.398635
2535,2535,Goods Enterprise North,445 W Amelia St,32801,FL,Florida,Orlando,USA,1.888.537.8135,info@microstrategy.com,www.microstrategy.com,3,0,1,0,0,0,28.549432,-81.384299
2536,2536,USA South Inc,890 S Sun Dr,32746,FL,Florida,Lake Mary,USA,1.888.537.8135,info@microstrategy.com,www.microstrategy.com,4,1,1,0,1,0,28.7554456,-81.352482
2537,2537,Import Best No.1,901 Arabella Ln,32927,FL,Florida,Cocoa,USA,1.888.537.8135,info@microstrategy.com,www.microstrategy.com,4,1,1,1,1,0,28.476424,-80.778007
2538,2538,South Cents Hot,2a Woodside Road,NULL,NULL,NULL,Aberdeen,United Kingdom,1.888.537.8135,info@microstrategy.com,www.microstrategy.com,5,1,1,1,0,0,57.189762,-2.093183
2539,2539,Export Enterprise Store,Sunbelt 1840 Norwood Plz Ste 101,76054,TX,Texas,Hurst,USA,1.888.537.8135,info@microstrategy.com,www.microstrategy.com,5,0,0,0,0,0,32.849461,-97.167543
2540,2540,Urban Modern Old,1601 18th St NW Ste 1,20009,DC,District of Columbia,Washington,USA,1.888.537.8135,info@microstrategy.com,www.microstrategy.com,3,1,0,1,1,0,38.911255,-77.041524
2541,2541,Export Group Winter, 22 Stuart Rd Waterloo Liverpool,NULL,NULL,NULL, Liverpool,United Kingdom,1.888.537.8135,info@microstrategy.com,www.microstrategy.com,4,1,1,0,1,0,53.4798199,-3.019498
2542,2542,Inc Winter South,4800 Main St Ste 100,64112,MO,Missouri,Kansas City,USA,1.888.537.8135,info@microstrategy.com,www.microstrategy.com,2,1,1,1,1,1,39.0393175,-94.5870912
2543,2543,Store Enterprise General,Reading Terminal Market 51 N 12th St,19107,PA,Pennsylvania,Philadelphia,USA,1.888.537.8135,info@microstrategy.com,www.microstrategy.com,4,0,0,0,0,1,39.953241,-75.159659
2544,2544,Rural Lead South,339 International Dr,59808,MT,Montana,Missoula,USA,1.888.537.8135,info@microstrategy.com,www.microstrategy.com,3,1,1,1,1,1,46.9049302,-114.04633
2545,2545,New Rural Dollar,6110 Broadway,46410,IN,Indiana,Merrillville,USA,1.888.537.8135,info@microstrategy.com,www.microstrategy.com,2,0,0,1,0,0,41.5071451,-87.3360465
2546,2546,East Dollar Winter,311 Locust Thorn Ct,21108,MD,Maryland,Millersville,USA,1.888.537.8135,info@microstrategy.com,www.microstrategy.com,5,1,0,0,1,0,39.098018,-76.612988
2547,2547,No.1 General Goods,330 S Main St,62906,IL,Illinois,Anna,USA,1.888.537.8135,info@microstrategy.com,www.microstrategy.com,5,1,0,1,0,0,37.45907,-89.249389
2548,2548,East .com Hot,500 Sw 33Rd Ave,34474,FL,Florida,Ocala,USA,1.888.537.8135,info@microstrategy.com,www.microstrategy.com,3,0,1,1,0,0,29.182254,-82.179222
2549,2549,Spring Old General,1695 S Schuyler Ave,60901,IL,Illinois,Kankakee,USA,1.888.537.8135,info@microstrategy.com,www.microstrategy.com,4,0,1,1,0,0,41.0960023,-87.8690751
2550,2550,Best Urban Hot,734 Philadelphia St,15701,PA,Pennsylvania,Indiana,USA,1.888.537.8135,info@microstrategy.com,www.microstrategy.com,4,1,1,1,0,0,40.6229457,-79.1538241
2551,2551,Lead Group Cold,1001 Pennsylvania Ave NW Ste 220S,20004,DC,District of Columbia,Washington,USA,1.888.537.8135,info@microstrategy.com,www.microstrategy.com,4,0,0,1,0,0,38.895113,-77.026478
2552,2552,Summer Dollar Modern,11322 Sir Winston St,78216,TX,Texas,San Antonio,USA,1.888.537.8135,info@microstrategy.com,www.microstrategy.com,3,1,0,0,0,1,29.551565,-98.511375
2553,2553,Fall Cents Import,1606 20Th St NW Third Fl,20009,DC,District of Columbia,Washington,USA,1.888.537.8135,info@microstrategy.com,www.microstrategy.com,4,1,1,0,0,1,NULL,NULL
2554,2554,South No.1 Enterprise,6 4th Ln SW,59436,MT,Montana,Fairfield,USA,1.888.537.8135,info@microstrategy.com,www.microstrategy.com,4,0,0,1,1,0,47.6004802,-112.071164
2555,2555,Goods Main Inc,14 Knollcrest Dr,45237,OH,Ohio,Cincinnati,USA,1.888.537.8135,info@microstrategy.com,www.microstrategy.com,5,1,1,1,0,0,39.2122171,-84.4388389
2556,2556,Import General Spring,8479 Fort Smallwood Rd,21122,MD,Maryland,Pasadena,USA,1.888.537.8135,info@microstrategy.com,www.microstrategy.com,5,1,1,0,0,0,39.157952,-76.516959
2557,2557,Rural Main North,515 Kings Hwy,11223,NY,New York,Brooklyn,USA,1.888.537.8135,info@microstrategy.com,www.microstrategy.com,5,1,1,0,0,0,40.604608,-73.9705029
2558,2558,Old Cents USA,13 Bon Accord Sq Scotland,NULL,NULL,NULL,Aberdeen,United Kingdom,1.888.537.8135,info@microstrategy.com,www.microstrategy.com,5,1,1,1,0,0,57.1426867,-2.106907
2559,2559,Store Rural The,317 3rd St SE Apt 5,20003,DC,District of Columbia,Washington,USA,1.888.537.8135,info@microstrategy.com,www.microstrategy.com,2,1,0,1,1,0,38.885553,-77.002377
2560,2560,Export West Cold,16682 Orange Dr,92886,CA,California,Yorba Linda,USA,1.888.537.8135,info@microstrategy.com,www.microstrategy.com,4,1,1,0,0,0,33.892082,-117.843285
2561,2561,Rural Export Best,RR 2 Box 15,58647,ND,North Dakota,New England,USA,1.888.537.8135,info@microstrategy.com,www.microstrategy.com,4,1,1,0,1,0,NULL,NULL
2562,2562,South Import Design,2388 Carova Rd,27927,NC,North Carolina,Corolla,USA,1.888.537.8135,info@microstrategy.com,www.microstrategy.com,3,1,0,0,0,0,36.547254,-75.871351
2563,2563,New Design Import,1335 Barton Crk,78258,TX,Texas,San Antonio,USA,1.888.537.8135,info@microstrategy.com,www.microstrategy.com,3,1,1,1,1,1,29.615032,-98.515848
2564,2564,Store Rural Inc,1621 S Mason Rd,77450,TX,Texas,Katy,USA,1.888.537.8135,info@microstrategy.com,www.microstrategy.com,5,1,0,0,1,0,29.757508,-95.751112
2565,2565,East Dollar Fall,5103 Rittiman Rd,78218,TX,Texas,San Antonio,USA,1.888.537.8135,info@microstrategy.com,www.microstrategy.com,2,1,1,0,0,0,29.485737,-98.389443
2566,2566,Import Cents The,6520 Fratt Rd,78218,TX,Texas,San Antonio,USA,1.888.537.8135,info@microstrategy.com,www.microstrategy.com,4,0,0,0,1,0,29.4849876,-98.3927054
2567,2567,Winter No.1 General,1 Aldi Dr,60420,IL,Illinois,Dwight,USA,1.888.537.8135,info@microstrategy.com,www.microstrategy.com,5,0,0,1,1,1,41.1143921,-88.4086231
2568,2568,New Enterprise Winter,2590 Elm Rd NE,44483,OH,Ohio,Warren,USA,1.888.537.8135,info@microstrategy.com,www.microstrategy.com,4,1,1,1,1,0,41.2578876,-80.7853601
2569,2569,The Cold Main,149 Cross Center Dr,28037,NC,North Carolina,Denver,USA,1.888.537.8135,info@microstrategy.com,www.microstrategy.com,5,1,1,0,1,0,35.443541,-80.995937
2570,2570,Import Associates General,1800 Two First Union Center,28282,NC,North Carolina,Charlotte,USA,1.888.537.8135,info@microstrategy.com,www.microstrategy.com,1,1,1,1,0,0,35.22427,-80.84554
2571,2571,The New Rural,5610 E Independence Blvd,28212,NC,North Carolina,Charlotte,USA,1.888.537.8135,info@microstrategy.com,www.microstrategy.com,3,0,0,0,1,0,35.1835198,-80.7564125
2572,2572,Hot New .com,610 E King St,28086,NC,North Carolina,Kings Mountain,USA,1.888.537.8135,info@microstrategy.com,www.microstrategy.com,3,1,0,1,0,0,35.239917,-81.33177
2573,2573,Import Enterprise New,971 S Main St,27284,NC,North Carolina,Kernersville,USA,1.888.537.8135,info@microstrategy.com,www.microstrategy.com,3,1,0,1,0,0,36.107731,-80.094681
2574,2574,Modern Design USA,2100 Pennsylvania Ave NW Ste 400,20037,DC,District of Columbia,Washington,USA,1.888.537.8135,info@microstrategy.com,www.microstrategy.com,3,1,0,1,0,0,38.901074,-77.047252
2575,2575,Spring No.1 Design,5295 Stone Mountain Hwy,30087,GA,Georgia,Stone Mountain,USA,1.888.537.8135,info@microstrategy.com,www.microstrategy.com,3,1,0,0,0,0,NULL,NULL
2576,2576,Modern Spring Summer,2100 Contra Costa Blvd,94523,CA,California,Pleasant Hill,USA,1.888.537.8135,info@microstrategy.com,www.microstrategy.com,3,1,0,0,1,1,37.947093,-122.059066
2577,2577,Goods Store First,1127 Alhambra Blvd,95816,CA,California,Sacramento,USA,1.888.537.8135,info@microstrategy.com,www.microstrategy.com,5,1,0,1,1,0,38.5708226,-121.466043
2578,2578,Enterprise Associates Export,240 Indianapolis Rd,46158,IN,Indiana,Mooresville,USA,1.888.537.8135,info@microstrategy.com,www.microstrategy.com,3,1,0,0,0,0,39.6151036,-86.3654958
2579,2579,First Design Cents,743 Bedford Rd,60450,IL,Illinois,Morris,USA,1.888.537.8135,info@microstrategy.com,www.microstrategy.com,3,1,1,1,0,0,41.3717184,-88.436586
2580,2580,Hot Spring Design,3518 Highway 153,29611,SC,South Carolina,Greenville,USA,1.888.537.8135,info@microstrategy.com,www.microstrategy.com,5,1,0,1,0,0,34.790863,-82.485052
2581,2581,Hot Winter Summer,3720 Boiling Springs Rd,29316,SC,South Carolina,Boiling Springs,USA,1.888.537.8135,info@microstrategy.com,www.microstrategy.com,5,1,0,1,1,0,35.048679,-81.9827059
2582,2582,Inc Summer The,5150 Sinclair Ln,21206,MD,Maryland,Baltimore,USA,1.888.537.8135,info@microstrategy.com,www.microstrategy.com,4,1,0,0,1,1,39.3226749,-76.5447414
2583,2583,Dollar First Cold, Windmill Balk Lane,NULL,NULL,NULL, Doncaster,United Kingdom,1.888.537.8135,info@microstrategy.com,www.microstrategy.com,5,1,1,0,0,0,53.566804,-1.190382
2584,2584,Hot Cents Modern, William Sutcliffe Ste Raymond Ct Princes Dr,NULL,NULL,NULL, Colwyn Bay,United Kingdom,1.888.537.8135,info@microstrategy.com,www.microstrategy.com,4,1,0,0,0,1,53.298178,-3.731231
2585,2585,Best Inc North,226 E Baltimore St,21787,MD,Maryland,Taneytown,USA,1.888.537.8135,info@microstrategy.com,www.microstrategy.com,5,1,0,0,0,1,39.655725,-77.171155
2586,2586,Inc Old Best,32 W State St,16146,PA,Pennsylvania,Sharon,USA,1.888.537.8135,info@microstrategy.com,www.microstrategy.com,3,1,1,0,1,0,41.232904,-80.5092625
2587,2587,Goods Main Export,405 Galleria Dr,15904,PA,Pennsylvania,Johnstown,USA,1.888.537.8135,info@microstrategy.com,www.microstrategy.com,2,1,0,0,1,0,40.2921618,-78.8383439
2588,2588,East Winter Urban,457 E Main St,15501,PA,Pennsylvania,Somerset,USA,1.888.537.8135,info@microstrategy.com,www.microstrategy.com,1,1,1,0,1,0,40.0072613,-79.070518
2589,2589,.com Old General,127 Eastern Ave,01930,MA,Massachusetts,Gloucester,USA,1.888.537.8135,info@microstrategy.com,www.microstrategy.com,2,0,0,1,0,1,42.6233707,-70.641158
2590,2590,Export Goods Cold,1120 Bichara Blvd,32159,FL,Florida,Lady Lake,USA,1.888.537.8135,info@microstrategy.com,www.microstrategy.com,3,0,1,1,0,0,28.9418014,-81.9476871
2591,2591,Store Import Best,1421 Sadler Rd,32034,FL,Florida,Fernandina Beach,USA,1.888.537.8135,info@microstrategy.com,www.microstrategy.com,4,1,0,1,0,0,30.6397803,-81.4518135
2592,2592,Associates North .com,1700 NE Miami Gardens Dr,33179,FL,Florida,Miami,USA,1.888.537.8135,info@microstrategy.com,www.microstrategy.com,5,0,1,1,1,0,25.944968,-80.166829
2593,2593,Best The Summer,1703 W Main St,37087,TN,Tennessee,Lebanon,USA,1.888.537.8135,info@microstrategy.com,www.microstrategy.com,4,1,0,1,0,1,36.221513,-86.3452381
2594,2594,Associates Store Best,171 Town and Country Dr,32177,FL,Florida,Palatka,USA,1.888.537.8135,info@microstrategy.com,www.microstrategy.com,2,1,0,0,0,1,29.6460527,-81.6724241
2595,2595,Best Lead Enterprise,1980 E Osceola Pkwy,34743,FL,Florida,Kissimmee,USA,1.888.537.8135,info@microstrategy.com,www.microstrategy.com,4,1,0,1,1,0,28.3447055,-81.3627391
2596,2596,Old Main South,207 Russell Pkwy,31088,GA,Georgia,Warner Robins,USA,1.888.537.8135,info@microstrategy.com,www.microstrategy.com,3,0,0,0,0,0,32.591799,-83.6283739
2597,2597,Associates Fall Best,21230 Saint Andrews Blvd,33433,FL,Florida,Boca Raton,USA,1.888.537.8135,info@microstrategy.com,www.microstrategy.com,5,0,0,0,1,1,26.3617948,-80.1375271
2598,2598,Store Dollar Winter,2463 Hamilton Mill Pkwy,30019,GA,Georgia,Dacula,USA,1.888.537.8135,info@microstrategy.com,www.microstrategy.com,5,1,0,1,0,1,34.0593037,-83.9150282
2599,2599,Associates Dollar Dollar,2556 Enterprise Rd,32763,FL,Florida,Orange City,USA,1.888.537.8135,info@microstrategy.com,www.microstrategy.com,3,0,1,0,1,0,28.9169767,-81.2950061
2600,2600,Modern Modern Best,2873 S Orange Ave,32806,FL,Florida,Orlando,USA,1.888.537.8135,info@microstrategy.com,www.microstrategy.com,4,0,1,1,0,0,28.5107297,-81.3762737
2601,2601,USA Best North,4870 Biscayne Blvd,33137,FL,Florida,Miami,USA,1.888.537.8135,info@microstrategy.com,www.microstrategy.com,5,0,1,1,0,0,25.820233,-80.188121
2602,2602,Main Design Associates,5991 Pine Ridge Rd,34119,FL,Florida,Naples,USA,1.888.537.8135,info@microstrategy.com,www.microstrategy.com,2,0,1,0,0,0,26.2117782,-81.7281748
2603,2603,No.1 Winter Fall,831 Village Blvd,33409,FL,Florida,West Palm Beach,USA,1.888.537.8135,info@microstrategy.com,www.microstrategy.com,3,1,0,0,1,1,26.713951,-80.101135
2604,2604,Goods Main East,9050 Biscayne Blvd,33138,FL,Florida,Miami Shores,USA,1.888.537.8135,info@microstrategy.com,www.microstrategy.com,4,1,1,0,0,0,25.859,-80.18402
2605,2605,Lead Dollar Dollar,2501 W 12th St,16505,PA,Pennsylvania,Erie,USA,1.888.537.8135,info@microstrategy.com,www.microstrategy.com,3,1,0,0,0,0,42.1030909,-80.1364027
2606,2606,Rural South Inc,27505 Chardon Rd,44092,OH,Ohio,Willoughby Hills,USA,1.888.537.8135,info@microstrategy.com,www.microstrategy.com,3,1,1,1,0,0,41.5831559,-81.4835409
2607,2607,Design Import Inc,2801 E Waterloo Rd,44312,OH,Ohio,Akron,USA,1.888.537.8135,info@microstrategy.com,www.microstrategy.com,1,0,1,1,0,0,41.0314477,-81.4287135
2608,2608,Modern South Export,4250 Murray Ave,15217,PA,Pennsylvania,Pittsburgh,USA,1.888.537.8135,info@microstrategy.com,www.microstrategy.com,1,0,0,0,0,0,40.4221493,-79.9288949
2609,2609,Main Export East,50 W Bridge St,44017,OH,Ohio,Berea,USA,1.888.537.8135,info@microstrategy.com,www.microstrategy.com,3,1,0,0,0,0,41.3675659,-81.8562
2610,2610,Store West General,601 Meadowlands Blvd,15301,PA,Pennsylvania,Washington,USA,1.888.537.8135,info@microstrategy.com,www.microstrategy.com,3,1,0,0,0,0,40.2242595,-80.2093708
2611,2611,Design Best Group,231 N Philadelphia Blvd,21001,MD,Maryland,Aberdeen,USA,1.888.537.8135,info@microstrategy.com,www.microstrategy.com,1,1,0,0,0,0,39.51331,-76.160373
2612,2612,The Store Best, 4 Lady Nairne Loan Edinburgh,NULL,NULL,NULL, Edinburgh,United Kingdom,1.888.537.8135,info@microstrategy.com,www.microstrategy.com,4,0,0,0,1,0,55.9464998,-3.139264
2613,2613,Old The General,20955 Stevens Creek Blvd,95014,CA,California,Cupertino,USA,1.888.537.8135,info@microstrategy.com,www.microstrategy.com,3,1,1,0,0,1,37.323613,-122.040134
2614,2614,Hot Urban Goods,3540 Wade Ave,27607,NC,North Carolina,Raleigh,USA,1.888.537.8135,info@microstrategy.com,www.microstrategy.com,2,0,1,0,1,0,35.8012993,-78.6851142
2615,2615,Spring Cold Cents,40 Railroad St,01810,MA,Massachusetts,Andover,USA,1.888.537.8135,info@microstrategy.com,www.microstrategy.com,5,0,1,1,0,0,42.661,-71.145
2616,2616,Urban Dollar North,4301 Main St,64111,MO,Missouri,Kansas City,USA,1.888.537.8135,info@microstrategy.com,www.microstrategy.com,2,0,0,1,0,0,39.0493221,-94.5864978
2617,2617,Summer East Old,4530 40th St NW,20016,DC,District of Columbia,Washington,USA,1.888.537.8135,info@microstrategy.com,www.microstrategy.com,3,1,1,1,0,0,38.948848,-77.079219
2618,2618,East Modern Dollar,4944 Shelbyville Rd,40207,KY,Kentucky,Louisville,USA,1.888.537.8135,info@microstrategy.com,www.microstrategy.com,5,0,1,0,0,0,38.2503003,-85.6251804
2619,2619,Winter No.1 Summer, 39A Dalry Rd Edinburgh,NULL,NULL,NULL, Edinburgh,United Kingdom,1.888.537.8135,info@microstrategy.com,www.microstrategy.com,5,1,1,0,0,0,55.9448223,-3.217702
2620,2620,North Associates East,1075 N Hills Blvd Ste 270,89506,NV,Nevada,Reno,USA,1.888.537.8135,info@microstrategy.com,www.microstrategy.com,4,1,1,0,0,0,39.6118552,-119.8448336
2621,2621,Summer USA Store,3400 S 4Th St,66048,KS,Kansas,Leavenworth,USA,1.888.537.8135,info@microstrategy.com,www.microstrategy.com,3,1,0,1,1,0,39.2671176,-94.8998765
2622,2622,North Winter Hot,5169 Fair Oaks Blvd,95608,CA,California,Carmichael,USA,1.888.537.8135,info@microstrategy.com,www.microstrategy.com,5,1,1,0,1,0,38.5973543,-121.3440966
2623,2623,Winter Goods Fall,11915 Tarragon Rd,21136,MD,Maryland,Reisterstown,USA,1.888.537.8135,info@microstrategy.com,www.microstrategy.com,3,0,0,1,0,0,39.444988,-76.819885
2624,2624,Lead The New,501 Silverside Rd Ste 105,19809,DE,Delaware,Wilmington,USA,1.888.537.8135,info@microstrategy.com,www.microstrategy.com,4,0,1,1,0,0,39.786914,-75.4853
2625,2625,Cold North Store,5770 Fleet St,92008,CA,California,Carlsbad,USA,1.888.537.8135,info@microstrategy.com,www.microstrategy.com,3,1,0,1,0,0,33.129177,-117.3166272
2626,2626,Goods Modern Best,2044 India St,92101,CA,California,San Diego,USA,1.888.537.8135,info@microstrategy.com,www.microstrategy.com,4,0,1,0,0,1,32.7260029,-117.1693018
2627,2627,Dollar Rural Modern,2102 Mountain Ave,93101,CA,California,Santa Barbara,USA,1.888.537.8135,info@microstrategy.com,www.microstrategy.com,5,0,1,1,1,0,34.421303,-119.727494
2628,2628,Main Enterprise Cold, 3A Eastcraigie Farm Steadings Dalmeny Estate,NULL,NULL,NULL, Edinburgh,United Kingdom,1.888.537.8135,info@microstrategy.com,www.microstrategy.com,2,1,0,0,0,0,55.9501755,-3.1875359
2629,2629,Old Main Group,505 Jefferson Ave,07094,NJ,New Jersey,Secaucus,USA,1.888.537.8135,info@microstrategy.com,www.microstrategy.com,5,0,0,0,0,0,40.7733521,-74.0643938
2630,2630,Inc Inc Group, 3d Fl E Standard Life House 30 Lothian Rd,NULL,NULL,NULL, Edinburgh,United Kingdom,1.888.537.8135,info@microstrategy.com,www.microstrategy.com,1,1,1,0,1,0,55.9486231,-3.2065759
2631,2631,Lead Fall Cold,953 State Route 18,15001,PA,Pennsylvania,Aliquippa,USA,1.888.537.8135,info@microstrategy.com,www.microstrategy.com,4,1,0,0,1,1,40.6068863,-80.2724087
2632,2632,North General West,1305 Long Run Rd,17933,PA,Pennsylvania,Friedensburg,USA,1.888.537.8135,info@microstrategy.com,www.microstrategy.com,5,0,0,0,0,0,40.6019848,-76.2454449
2633,2633,Group Inc Urban,1335 GA Highway 257,31015,GA,Georgia,Cordele,USA,1.888.537.8135,info@microstrategy.com,www.microstrategy.com,1,1,0,1,0,0,NULL,NULL
2634,2634,Best Rural Summer, 4  2 Belhaven Ter,NULL,NULL,NULL, Edinburgh,United Kingdom,1.888.537.8135,info@microstrategy.com,www.microstrategy.com,4,0,0,0,1,1,55.9251,-3.210152
2635,2635,Design Main Import,40575 Grand River Ave,48375,MI,Michigan,Novi,USA,1.888.537.8135,info@microstrategy.com,www.microstrategy.com,5,0,1,1,0,0,42.4739219,-83.4448751
2636,2636,Rural USA Export,152 S Main St,08850,NJ,New Jersey,Milltown,USA,1.888.537.8135,info@microstrategy.com,www.microstrategy.com,4,0,0,1,0,0,40.4464412,-74.4338041
2637,2637,West Summer Export,10 N Mast St,03045,NH,New Hampshire,Goffstown,USA,1.888.537.8135,info@microstrategy.com,www.microstrategy.com,1,1,0,0,0,0,43.0209131,-71.601307
2638,2638,Spring Urban Import,508 Highway 11 N,39466,MS,Mississippi,Picayune,USA,1.888.537.8135,info@microstrategy.com,www.microstrategy.com,2,0,1,0,0,1,30.5336106,-89.6758503
2639,2639,.com Modern North,A E T 1 1150 NW 72nd Ave Ste 555,33126,FL,Florida,Miami,USA,1.888.537.8135,info@microstrategy.com,www.microstrategy.com,2,0,1,0,0,0,25.781742,-80.313158
2640,2640,Main Old Winter,1800 Purchase St,02740,MA,Massachusetts,New Bedford,USA,1.888.537.8135,info@microstrategy.com,www.microstrategy.com,4,1,0,1,1,0,41.6489799,-70.9286209
2641,2641,Summer New South,1 Trent Jones Ln,29928,SC,South Carolina,Hilton Head Island,USA,1.888.537.8135,info@microstrategy.com,www.microstrategy.com,3,1,0,0,0,1,32.1694547,-80.7201902
